13:15:48.607: <- $PAMTR,POST,0,0,0,0,0,,0,0,0,0,0,0,0,,0,0,,,,,WX*4D
13:15:48.687: <- $YXXDR,A,-0.4,D,PTCH,A,0.2,D,ROLL*76
13:15:48.787: <- $PAMTR,COMP,Q,100,100,100,0,0,0,0,8,-30*11
13:15:49.567: <- $PAMTR,POST,0,0,0,0,0,,0,0,0,0,0,0,0,,0,0,,,,,WX*4D
13:15:49.697: <- $YXXDR,C,,C,WCHR,C,,C,WCHT,C,28.8,C,HINX,P,0.9778,B,STNP*56
13:15:49.727: <- $PAMTR,INFO*78
13:15:49.807: <- $PAMTT,Weather Station model 200WX
13:15:49.967: <- $PAMTT,Copyright (C) 2005-2015 AIRMAR Technology, Inc. All Rights Reserved.
13:15:50.547: <- $PAMTT,POST,0,0,0,0,0,,0,0,0,0,0,0,0,,0,0,,,,,WX*4B
13:15:50.657: <- $PAMTT,QV,,11,0,,2.006,2.211,2.003,2.207,13.5.31,1.15*6B
13:15:50.737: <- $PAMTT,QPS,44-837-1-01,3201664,6*2D
13:15:50.827: <- $PAMTR,COMP,Q,100,100,100,0,0,0,0,8,-30*11
13:15:50.927: <- $PAMTR,COMP,Q,100,100,100,0,0,0,0,8,-30*11
13:15:51.007: <- $PAMTR,COMP,Q,100,100,100,0,0,0,0,8,-30*11
13:15:51.737: <- $PAMTR,POST,0,0,0,0,0,,0,0,0,0,0,0,0,,0,0,,,,,WX*4D
13:15:52.427: <- $PAMTR,INFO*78
13:15:52.507: <- $PAMTT,Weather Station model 200WX
13:15:52.667: <- $PAMTT,Copyright (C) 2005-2015 AIRMAR Technology, Inc. All Rights Reserved.
13:15:53.467: <- $PAMTT,POST,0,0,0,0,0,,0,0,0,0,0,0,0,,0,0,,,,,WX*4B
13:15:53.577: <- $PAMTT,QV,,11,0,,2.006,2.211,2.003,2.207,13.5.31,1.15*6B
13:15:53.657: <- $PAMTT,QPS,44-837-1-01,3201664,6*2D
13:15:53.837: <- $HCHDG,91.3,0.0,E,9.2,W*60
13:15:53.887: <- $WIMWV,316.0,R,1.2,N,A*24
13:15:54.107: <- $PAMTR,INFO*78
13:15:54.177: <- $PAMTT,Weather Station model 200WX
13:15:54.337: <- $PAMTT,Copyright (C) 2005-2015 AIRMAR Technology, Inc. All Rights Reserved.
13:15:55.147: <- $PAMTT,POST,0,0,0,0,0,,0,0,0,0,0,0,0,,0,0,,,,,WX*4B
13:15:55.257: <- $PAMTT,QV,,11,0,,2.006,2.211,2.003,2.207,13.5.31,1.15*6B
13:15:55.337: <- $PAMTT,QPS,44-837-1-01,3201664,6*2D
13:15:56.777: <- $HCHDG,91.3,0.0,E,9.2,W*60
13:15:56.827: <- $WIMWV,309.6,R,1.4,N,A*2A
13:15:57.277: <- $HCHDG,91.0,0.0,E,9.2,W*63
13:15:57.337: <- $WIMWV,308.0,R,1.4,N,A*2D
13:15:57.417: <- $YXXDR,A,-0.4,D,PTCH,A,0.0,D,ROLL*74
13:15:57.767: <- $HCHDG,91.0,0.0,E,9.2,W*63
13:15:57.837: <- $WIMWV,303.8,R,1.3,N,A*29
13:15:57.997: <- $WIMDA,30.2712,I,1.0251,B,28.2,C,,,51.9,,17.3,C,23.8,T,33.0,M,1.4,N,0.7,M*60
13:15:58.027: <- $TIROT,-5.5,A*16
13:15:59.977: <- $HCHDG,91.1,0.0,E,9.2,W*62
13:16:00.027: <- $WIMWV,272.2,R,1.2,N,A*25
13:16:00.477: <- $HCHDG,91.1,0.0,E,9.2,W*62
13:16:00.537: <- $WIMWV,272.2,R,1.2,N,A*25
13:16:00.617: <- $YXXDR,A,-0.7,D,PTCH,A,0.2,D,ROLL*75
13:16:00.967: <- $HCHDG,91.1,0.0,E,9.2,W*62
13:16:01.037: <- $WIMWV,287.7,R,1.2,N,A*2A
13:16:01.197: <- $WIMDA,30.2682,I,1.0250,B,28.2,C,,,51.9,,17.3,C,8.4,T,17.6,M,1.2,N,0.6,M*5B
13:16:01.227: <- $TIROT,-6.8,A*18
13:16:01.477: <- $HCHDG,91.1,0.0,E,9.2,W*62
13:16:01.527: <- $WIMWV,285.5,R,1.2,N,A*2A
13:16:01.687: <- $GPRMC,171403.60,A,4018.3480,N,07958.6936,W,0.0,249.9,220819,9.2,W,D*30
13:16:01.767: <- $GPZDA,171403.70,22,08,2019,00,00*63
13:16:01.847: <- $YXXDR,A,-0.4,D,PTCH,A,0.2,D,ROLL*76
13:16:01.977: <- $HCHDG,91.1,0.0,E,9.2,W*62
13:16:02.027: <- $WIMWV,287.0,R,1.1,N,A*2E
13:16:02.477: <- $HCHDG,91.1,0.0,E,9.2,W*62
13:16:02.537: <- $WIMWV,283.7,R,1.3,N,A*2F
13:16:02.677: <- $GPGGA,171404.60,4018.3481,N,07958.6936,W,2,9,1.1,397.8,M,-33.0,M,,*67
13:16:02.837: <- $WIMDA,30.2712,I,1.0251,B,28.3,C,,,51.8,,17.4,C,9.6,T,18.8,M,1.3,N,0.7,M*57
13:16:02.967: <- $YXXDR,C,,C,WCHR,C,,C,WCHT,C,28.9,C,HINX,P,0.9777,B,STNP*58
13:16:03.017: <- $TIROT,-14.2,A*21
13:16:03.077: <- $YXXDR,A,-0.5,D,PTCH,A,0.2,D,ROLL*77
13:16:03.147: <- $HCHDG,91.1,0.0,E,9.2,W*62
13:16:03.207: <- $WIMWV,294.9,R,1.5,N,A*21
13:16:03.627: <- $GPRMC,171405.60,A,4018.3481,N,07958.6936,W,0.0,343.2,220819,9.2,W,D*37
13:16:03.687: <- $HCHDG,91.1,0.0,E,9.2,W*62
13:16:03.737: <- $WIMWV,294.0,R,1.3,N,A*2E
13:16:03.817: <- $GPZDA,171405.80,22,08,2019,00,00*6A
13:16:03.997: <- $YXXDR,A,-1.0,D,PTCH,A,0.1,D,ROLL*70
13:16:04.157: <- $GPGSV,3,1,11,02,69,327,37,05,48,207,41,06,45,060,26,09,23,068,26*7A
13:16:04.277: <- $GPGSV,3,2,,12,48,252,45,17,19,125,32,19,33,121,26,23,07,037,19*7E
13:16:04.397: <- $GPGSV,3,3,,25,30,302,25,29,08,309,,44,30,229,38*43
13:16:04.457: <- $HCHDG,91.3,0.0,E,9.2,W*60
13:16:04.507: <- $WIMWV,282.3,R,1.8,N,A*21
13:16:04.557: <- $TIROT,-3.7,A*12
13:16:04.717: <- $WIMDA,30.2712,I,1.0251,B,28.2,C,,,51.8,,17.3,C,4.8,T,14.0,M,1.6,N,0.8,M*5C
13:16:04.877: <- $HCHDG,91.0,0.0,E,9.2,W*63
13:16:04.937: <- $WIMWV,290.1,R,1.7,N,A*2F
13:16:05.017: <- $YXXDR,A,-0.3,D,PTCH,A,0.3,D,ROLL*70
13:16:05.387: <- $HCHDG,91.0,0.0,E,9.2,W*63
13:16:05.427: <- $WIMWV,297.3,R,1.7,N,A*2A
13:16:05.627: <- $GPRMC,171407.60,A,4018.3482,N,07958.6936,W,0.0,338.0,220819,9.2,W,D*38
13:16:05.787: <- $GPGGA,171407.70,4018.3482,N,07958.6936,W,2,9,1.1,397.7,M,-33.0,M,,*69
13:16:05.847: <- $GPZDA,171407.80,22,08,2019,00,00*68
13:16:05.977: <- $YXXDR,C,,C,WCHR,C,,C,WCHT,C,28.8,C,HINX,P,0.9776,B,STNP*58
13:16:06.037: <- $WIMWV,303.8,R,1.9,N,A*23
13:16:06.117: <- $YXXDR,A,-0.5,D,PTCH,A,0.1,D,ROLL*74
13:16:06.277: <- $WIMDA,30.2712,I,1.0251,B,28.2,C,,,51.8,,17.3,C,21.9,T,31.1,M,1.7,N,0.9,M*6C
13:16:06.347: <- $HCHDG,91.0,0.0,E,9.2,W*63
13:16:06.377: <- $TIROT,-3.4,A*11
13:16:06.467: <- $WIMWV,295.3,R,1.8,N,A*27
13:16:06.777: <- $HCHDG,91.0,0.0,E,9.2,W*63
13:16:06.967: <- $WIMWV,303.7,R,1.9,N,A*2C
13:16:07.067: <- $YXXDR,A,-0.7,D,PTCH,A,-0.2,D,ROLL*58
13:16:07.267: <- $HCHDG,91.0,0.0,E,9.2,W*63
13:16:07.477: <- $WIMWV,294.6,R,1.6,N,A*2D
13:16:07.627: <- $GPRMC,171409.60,A,4018.3482,N,07958.6937,W,0.0,335.6,220819,9.2,W,D*3C
13:16:07.787: <- $WIMDA,30.2682,I,1.0250,B,28.3,C,,,51.8,,17.4,C,14.3,T,23.5,M,1.4,N,0.7,M*65
13:16:07.847: <- $HCHDG,91.0,0.0,E,9.2,W*63
13:16:07.927: <- $GPZDA,171409.90,22,08,2019,00,00*67
13:16:07.957: <- $TIROT,-6.7,A*17
13:16:08.027: <- $WIMWV,290.5,R,1.3,N,A*2F
13:16:08.107: <- $YXXDR,A,-0.4,D,PTCH,A,0.2,D,ROLL*76
13:16:08.277: <- $HCHDG,91.0,0.0,E,9.2,W*63
13:16:08.467: <- $WIMWV,293.9,R,1.5,N,A*26
13:16:08.617: <- $GPGSV,3,1,11,02,69,327,38,05,48,207,41,06,45,060,27,09,23,068,27*75
13:16:08.757: <- $GPGSV,3,2,,12,48,251,45,17,19,125,32,19,33,121,27,23,07,037,19*7C
13:16:08.867: <- $GPGSV,3,3,,25,30,302,23,29,08,309,,44,30,229,38*45
13:16:08.937: <- $HCHDG,91.0,0.0,E,9.2,W*63
13:16:09.077: <- $GPGGA,171411.00,4018.3483,N,07958.6938,W,2,9,1.1,397.5,M,-33.0,M,,*64
13:16:09.157: <- $YXXDR,A,-0.6,D,PTCH,A,0.0,D,ROLL*76
13:16:09.227: <- $WIMWV,299.3,R,1.4,N,A*27
13:16:09.347: <- $YXXDR,C,,C,WCHR,C,,C,WCHT,C,28.9,C,HINX,P,0.9777,B,STNP*58
13:16:09.397: <- $HCHDG,91.0,0.0,E,9.2,W*63
13:16:09.557: <- $WIMDA,30.2712,I,1.0251,B,28.3,C,,,51.8,,17.4,C,17.7,T,26.9,M,1.1,N,0.6,M*66
13:16:09.607: <- $TIROT,-10.4,A*23
13:16:09.747: <- $GPRMC,171411.60,A,4018.3483,N,07958.6938,W,0.0,341.1,220819,9.2,W,D*3F
13:16:09.817: <- $WIMWV,302.7,R,1.4,N,A*20
13:16:09.867: <- $HCHDG,91.0,0.0,E,9.2,W*63
13:16:09.947: <- $GPZDA,171411.90,22,08,2019,00,00*6E
13:16:10.107: <- $YXXDR,A,-0.7,D,PTCH,A,0.0,D,ROLL*77
13:16:10.227: <- $WIMWV,292.9,R,1.3,N,A*21
13:16:10.327: <- $HCHDG,91.0,0.0,E,9.2,W*63
13:16:10.727: <- $WIMWV,272.2,R,1.2,N,A*25
13:16:10.837: <- $HCHDG,91.0,0.0,E,9.2,W*63
13:16:10.997: <- $WIMDA,30.2712,I,1.0251,B,28.3,C,,,51.8,,17.4,C,345.2,T,354.4,M,1.2,N,0.6,M*6F
13:16:11.027: <- $TIROT,-5.1,A*12
13:16:11.107: <- $YXXDR,A,-0.4,D,PTCH,A,0.0,D,ROLL*74
13:16:11.237: <- $WIMWV,258.8,R,1.3,N,A*26
13:16:11.337: <- $HCHDG,91.0,0.0,E,9.2,W*63
13:16:11.667: <- $GPRMC,171413.60,A,4018.3483,N,07958.6938,W,0.0,132.6,220819,9.2,W,D*3C
13:16:11.737: <- $WIMWV,272.2,R,1.4,N,A*23
13:16:11.827: <- $HCHDG,90.7,0.0,E,9.2,W*65
13:16:11.907: <- $GPZDA,171413.90,22,08,2019,00,00*6C
13:16:12.057: <- $GPGGA,171414.00,4018.3483,N,07958.6939,W,2,9,1.1,397.3,M,-33.0,M,,*66
13:16:12.137: <- $YXXDR,A,-0.4,D,PTCH,A,0.2,D,ROLL*76
13:16:12.257: <- $YXXDR,C,,C,WCHR,C,,C,WCHT,C,28.9,C,HINX,P,0.9776,B,STNP*59
13:16:12.327: <- $WIMWV,284.1,R,1.7,N,A*2A
13:16:12.377: <- $HCHDG,90.7,0.0,E,9.2,W*65
13:16:12.547: <- $WIMDA,30.2653,I,1.0249,B,28.3,C,,,51.8,,17.4,C,3.4,T,12.6,M,1.7,N,0.9,M*5C
13:16:12.577: <- $TIROT,-11.9,A*2F
13:16:12.727: <- $WIMWV,263.7,R,1.3,N,A*21
13:16:12.837: <- $HCHDG,91.0,0.0,E,9.2,W*63
13:16:13.057: <- $GPGSV,3,1,11,02,69,327,38,05,48,207,42,06,45,060,27,09,23,068,24*75
13:16:13.207: <- $GPGSV,3,2,,12,48,251,45,17,19,125,32,19,33,121,26,23,07,037,18*7C
13:16:13.317: <- $GPGSV,3,3,,25,30,302,22,29,08,309,,44,30,229,38*44
13:16:13.377: <- $WIMWV,247.8,R,1.3,N,A*28
13:16:13.447: <- $YXXDR,A,-0.7,D,PTCH,A,0.2,D,ROLL*75
13:16:13.507: <- $HCHDG,91.0,0.0,E,9.2,W*63
13:16:13.667: <- $GPRMC,171415.60,A,4018.3483,N,07958.6939,W,0.0,246.9,220819,9.2,W,D*34
13:16:13.777: <- $WIMWV,243.9,R,1.4,N,A*2A
13:16:13.857: <- $GPZDA,171415.90,22,08,2019,00,00*6A
13:16:14.017: <- $WIMDA,30.2741,I,1.0252,B,28.3,C,,,51.8,,17.4,C,328.1,T,337.3,M,1.3,N,0.7,M*60
13:16:14.087: <- $HCHDG,90.7,0.0,E,9.2,W*65
13:16:14.117: <- $TIROT,-8.9,A*17
13:16:14.277: <- $WIMWV,245.4,R,1.2,N,A*27
13:16:14.357: <- $YXXDR,A,-0.5,D,PTCH,A,0.0,D,ROLL*75
13:16:14.537: <- $HCHDG,91.0,0.0,E,9.2,W*63
13:16:14.777: <- $WIMWV,246.3,R,1.0,N,A*21
13:16:15.027: <- $GPGGA,171417.00,4018.3483,N,07958.6939,W,2,9,1.1,397.3,M,-33.0,M,,*65
13:16:15.077: <- $HCHDG,91.0,0.0,E,9.2,W*63
13:16:15.257: <- $YXXDR,C,,C,WCHR,C,,C,WCHT,C,28.9,C,HINX,P,0.9776,B,STNP*59
13:16:15.297: <- $WIMWV,258.6,R,1.2,N,A*29
13:16:15.377: <- $YXXDR,A,-1.0,D,PTCH,A,0.0,D,ROLL*71
13:16:15.537: <- $WIMDA,30.2653,I,1.0249,B,28.3,C,,,51.8,,17.4,C,338.6,T,347.8,M,1.2,N,0.6,M*62
13:16:15.607: <- $HCHDG,91.3,0.0,E,9.2,W*60
13:16:15.637: <- $TIROT,-1.6,A*11
13:16:15.797: <- $GPRMC,171417.70,A,4018.3483,N,07958.6939,W,0.0,78.4,220819,9.2,W,D*05
13:16:15.847: <- $WIMWV,263.6,R,1.1,N,A*22
13:16:15.927: <- $GPZDA,171417.90,22,08,2019,00,00*68
13:16:16.037: <- $HCHDG,91.3,0.0,E,9.2,W*60
13:16:16.277: <- $WIMWV,261.2,R,1.5,N,A*20
13:16:16.357: <- $YXXDR,A,-0.7,D,PTCH,A,0.0,D,ROLL*77
13:16:16.537: <- $HCHDG,91.0,0.0,E,9.2,W*63
13:16:16.777: <- $WIMWV,264.3,R,1.6,N,A*27
13:16:16.977: <- $WIMDA,30.2653,I,1.0249,B,28.2,C,,,51.8,,17.3,C,347.2,T,356.4,M,1.6,N,0.8,M*6E
13:16:17.047: <- $HCHDG,91.0,0.0,E,9.2,W*63
13:16:17.077: <- $TIROT,-3.8,A*1D
13:16:17.267: <- $WIMWV,263.3,R,1.6,N,A*20
13:16:17.367: <- $YXXDR,A,-0.6,D,PTCH,A,-0.1,D,ROLL*5A
13:16:17.567: <- $GPGSV,3,1,11,02,69,327,38,05,48,207,44,06,45,060,28,09,23,068,20*78
13:16:17.697: <- $GPGSV,3,2,,12,48,251,45,17,19,125,32,19,33,121,24,23,07,037,17*71
13:16:17.807: <- $GPGSV,3,3,,25,30,302,21,29,08,309,,44,30,229,38*47
13:16:17.877: <- $HCHDG,91.3,0.0,E,9.2,W*60
13:16:18.037: <- $GPRMC,171419.90,A,4018.3485,N,07958.6939,W,0.0,177.7,220819,9.2,W,D*3E
13:16:18.087: <- $WIMWV,261.3,R,1.6,N,A*22
13:16:18.167: <- $GPZDA,171420.10,22,08,2019,00,00*64
13:16:18.307: <- $GPGGA,171420.10,4018.3485,N,07958.6939,W,2,9,1.1,397.0,M,-33.0,M,,*65
13:16:18.437: <- $YXXDR,C,,C,WCHR,C,,C,WCHT,C,28.9,C,HINX,P,0.9778,B,STNP*57
13:16:18.497: <- $HCHDG,91.0,0.0,E,9.2,W*63
13:16:18.577: <- $YXXDR,A,-0.5,D,PTCH,A,0.0,D,ROLL*75
13:16:18.627: <- $WIMWV,264.6,R,1.7,N,A*23
13:16:18.807: <- $WIMDA,30.2712,I,1.0251,B,28.3,C,,,51.8,,17.4,C,346.0,T,355.2,M,1.6,N,0.8,M*63
13:16:18.837: <- $TIROT,-3.8,A*1D
13:16:18.927: <- $HCHDG,91.0,0.0,E,9.2,W*63
13:16:19.077: <- $WIMWV,261.7,R,1.6,N,A*26
13:16:19.427: <- $HCHDG,91.3,0.0,E,9.2,W*60
13:16:19.507: <- $YXXDR,A,-0.4,D,PTCH,A,0.2,D,ROLL*76
13:16:19.567: <- $WIMWV,262.5,R,1.5,N,A*24
13:16:19.927: <- $GPRMC,171421.90,A,4018.3486,N,07958.6940,W,0.0,117.3,220819,9.2,W,D*3A
13:16:19.987: <- $HCHDG,91.3,0.0,E,9.2,W*60
13:16:20.087: <- $WIMWV,272.2,R,1.2,N,A*25
13:16:20.147: <- $GPZDA,171422.10,22,08,2019,00,00*66
13:16:20.327: <- $WIMDA,30.2682,I,1.0250,B,28.4,C,,,51.7,,17.4,C,354.4,T,3.6,M,1.2,N,0.6,M*6B
13:16:20.357: <- $TIROT,-6.5,A*15
13:16:20.437: <- $HCHDG,91.0,0.0,E,9.2,W*63
13:16:20.517: <- $YXXDR,A,-0.7,D,PTCH,A,0.2,D,ROLL*75
13:16:20.577: <- $WIMWV,272.2,R,1.0,N,A*27
13:16:20.927: <- $HCHDG,91.0,0.0,E,9.2,W*63
13:16:21.077: <- $WIMWV,272.2,R,1.2,N,A*25
13:16:21.267: <- $GPGGA,171423.10,4018.3487,N,07958.6940,W,2,9,1.1,396.7,M,-33.0,M,,*6C
13:16:21.397: <- $YXXDR,C,,C,WCHR,C,,C,WCHT,C,28.9,C,HINX,P,0.9776,B,STNP*59
13:16:21.457: <- $HCHDG,91.0,0.0,E,9.2,W*63
13:16:21.537: <- $YXXDR,A,-0.8,D,PTCH,A,0.3,D,ROLL*7B
13:16:21.587: <- $WIMWV,272.2,R,1.4,N,A*23
13:16:21.747: <- $WIMDA,30.2653,I,1.0249,B,28.3,C,,,51.7,,17.3,C,354.3,T,3.5,M,1.3,N,0.7,M*6B
13:16:21.797: <- $TIROT,-8.8,A*16
13:16:21.937: <- $GPRMC,171423.90,A,4018.3487,N,07958.6940,W,0.0,167.0,220819,9.2,W,D*3D
13:16:22.007: <- $HCHDG,91.0,0.0,E,9.2,W*63
13:16:22.147: <- $GPGSV,3,1,11,02,69,327,39,05,48,207,44,06,45,060,26,09,23,068,23*74
13:16:22.287: <- $GPGSV,3,2,,12,48,251,44,17,19,125,32,19,33,121,23,23,07,037,19*79
13:16:22.407: <- $GPGSV,3,3,,25,30,302,22,29,08,309,,44,30,229,38*44
13:16:22.447: <- $WIMWV,262.3,R,1.4,N,A*23
13:16:22.527: <- $GPZDA,171424.50,22,08,2019,00,00*64
13:16:22.607: <- $YXXDR,A,-0.4,D,PTCH,A,0.0,D,ROLL*74
13:16:22.677: <- $HCHDG,91.0,0.0,E,9.2,W*63
13:16:22.887: <- $WIMWV,262.0,R,1.3,N,A*27
13:16:23.077: <- $HCHDG,91.0,0.0,E,9.2,W*63
13:16:23.237: <- $WIMDA,30.2623,I,1.0248,B,28.2,C,,,51.6,,17.2,C,354.0,T,3.2,M,1.3,N,0.7,M*68
13:16:23.287: <- $TIROT,-3.0,A*15
13:16:23.377: <- $WIMWV,272.2,R,1.2,N,A*25
13:16:23.557: <- $YXXDR,A,-0.7,D,PTCH,A,0.2,D,ROLL*75
13:16:23.617: <- $HCHDG,91.0,0.0,E,9.2,W*63
13:16:23.917: <- $GPRMC,171425.90,A,4018.3488,N,07958.6941,W,0.0,129.8,220819,9.2,W,D*37
13:16:23.987: <- $WIMWV,252.6,R,1.2,N,A*23
13:16:24.087: <- $HCHDG,91.0,0.0,E,9.2,W*63
13:16:24.277: <- $GPGGA,171426.10,4018.3488,N,07958.6941,W,2,9,1.1,396.5,M,-33.0,M,,*65
13:16:24.397: <- $YXXDR,C,,C,WCHR,C,,C,WCHT,C,28.8,C,HINX,P,0.9777,B,STNP*59
13:16:24.447: <- $WIMWV,249.6,R,1.2,N,A*29
13:16:24.527: <- $GPZDA,171426.50,22,08,2019,00,00*66
13:16:24.607: <- $YXXDR,A,-0.4,D,PTCH,A,0.0,D,ROLL*74
13:16:24.677: <- $HCHDG,91.0,0.0,E,9.2,W*63
13:16:24.837: <- $WIMDA,30.2653,I,1.0249,B,28.2,C,,,51.6,,17.2,C,333.2,T,342.4,M,1.2,N,0.6,M*6D
13:16:24.867: <- $TIROT,-6.5,A*15
13:16:24.927: <- $WIMWV,249.9,R,1.2,N,A*26
13:16:25.077: <- $HCHDG,91.1,0.0,E,9.2,W*62
13:16:25.427: <- $WIMWV,253.1,R,1.0,N,A*27
13:16:25.557: <- $YXXDR,A,-0.4,D,PTCH,A,0.3,D,ROLL*77
13:16:25.617: <- $HCHDG,91.1,0.0,E,9.2,W*62
13:16:25.917: <- $GPRMC,171427.90,A,4018.3489,N,07958.6941,W,0.0,135.1,220819,9.2,W,D*30
13:16:25.987: <- $WIMWV,249.5,R,1.2,N,A*2A
13:16:26.077: <- $HCHDG,91.1,0.0,E,9.2,W*62
13:16:26.237: <- $WIMDA,30.2653,I,1.0249,B,28.2,C,,,51.6,,17.2,C,333.1,T,342.3,M,1.3,N,0.7,M*69
13:16:26.317: <- $TIROT,-4.3,A*11
13:16:26.437: <- $WIMWV,257.0,R,1.2,N,A*20
13:16:26.517: <- $GPZDA,171428.50,22,08,2019,00,00*68
13:16:26.657: <- $GPGSV,3,1,11,02,69,328,38,05,48,208,43,06,45,060,25,09,23,068,27*75
13:16:26.797: <- $GPGSV,3,2,,12,48,251,43,17,19,125,31,19,33,121,23,23,07,037,17*73
13:16:26.917: <- $GPGSV,3,3,,25,30,302,22,29,08,309,,44,30,229,37*4B
13:16:26.997: <- $YXXDR,A,-0.6,D,PTCH,A,0.3,D,ROLL*75
13:16:27.037: <- $HCHDG,91.1,0.0,E,9.2,W*62
13:16:27.107: <- $WIMWV,285.1,R,1.2,N,A*2E
13:16:27.267: <- $GPGGA,171429.10,4018.3489,N,07958.6941,W,2,9,1.1,396.4,M,-33.0,M,,*6A
13:16:27.397: <- $YXXDR,C,,C,WCHR,C,,C,WCHT,C,28.8,C,HINX,P,0.9777,B,STNP*59
13:16:27.477: <- $HCHDG,91.1,0.0,E,9.2,W*62
13:16:27.537: <- $WIMWV,288.7,R,1.2,N,A*25
13:16:27.727: <- $WIMDA,30.2653,I,1.0249,B,28.2,C,,,51.5,,17.2,C,7.6,T,16.8,M,1.0,N,0.5,M*51
13:16:27.807: <- $TIROT,-7.6,A*17
13:16:27.967: <- $GPRMC,171429.90,A,4018.3489,N,07958.6941,W,0.1,202.5,220819,9.2,W,D*3C
13:16:28.047: <- $YXXDR,A,-0.6,D,PTCH,A,-0.1,D,ROLL*5A
13:16:28.117: <- $HCHDG,91.1,0.0,E,9.2,W*62
13:16:28.157: <- $WIMWV,272.2,R,1.2,N,A*25
13:16:28.447: <- $GPZDA,171430.50,22,08,2019,00,00*61
13:16:28.527: <- $HCHDG,91.1,0.0,E,9.2,W*62
13:16:28.597: <- $WIMWV,284.9,R,1.1,N,A*24
13:16:28.957: <- $YXXDR,A,-0.7,D,PTCH,A,0.0,D,ROLL*77
13:16:29.037: <- $HCHDG,91.1,0.0,E,9.2,W*62
13:16:29.087: <- $WIMWV,289.6,R,1.0,N,A*27
13:16:29.247: <- $WIMDA,30.2682,I,1.0250,B,28.2,C,,,51.5,,17.2,C,14.8,T,24.0,M,1.0,N,0.5,M*60
13:16:29.317: <- $TIROT,-2.9,A*1D
13:16:29.537: <- $HCHDG,91.3,0.0,E,9.2,W*60
13:16:29.587: <- $WIMWV,293.3,R,1.0,N,A*29
13:16:29.917: <- $GPRMC,171431.90,A,4018.3489,N,07958.6941,W,0.0,182.8,220819,9.2,W,D*32
13:16:29.997: <- $YXXDR,A,-0.5,D,PTCH,A,0.0,D,ROLL*75
13:16:30.067: <- $HCHDG,91.4,0.0,E,9.2,W*67
13:16:30.127: <- $WIMWV,272.2,R,0.8,N,A*2E
13:16:30.277: <- $GPGGA,171432.10,4018.3489,N,07958.6941,W,2,9,1.1,396.3,M,-33.0,M,,*67
13:16:30.397: <- $YXXDR,C,,C,WCHR,C,,C,WCHT,C,28.9,C,HINX,P,0.9777,B,STNP*58
13:16:30.487: <- $GPZDA,171432.50,22,08,2019,00,00*63
13:16:30.527: <- $HCHDG,91.4,0.0,E,9.2,W*67
13:16:30.587: <- $WIMWV,272.2,R,0.6,N,A*20
13:16:30.747: <- $WIMDA,30.2653,I,1.0249,B,28.3,C,,,51.5,,17.3,C,359.0,T,8.2,M,0.6,N,0.3,M*6B
13:16:30.817: <- $TIROT,-9.2,A*1D
13:16:30.957: <- $YXXDR,A,-0.4,D,PTCH,A,0.2,D,ROLL*76
13:16:31.107: <- $GPGSV,3,1,11,02,69,328,39,05,48,208,43,06,45,060,22,09,23,068,27*73
13:16:31.247: <- $GPGSV,3,2,,12,48,251,43,17,19,125,32,19,33,121,25,23,07,037,12*73
13:16:31.357: <- $GPGSV,3,3,,25,30,302,21,29,08,309,,44,30,229,38*47
13:16:31.407: <- $WIMWV,299.0,R,0.8,N,A*29
13:16:31.467: <- $HCHDG,91.4,0.0,E,9.2,W*67
13:16:31.837: <- $WIMWV,301.6,R,0.9,N,A*2E
13:16:31.987: <- $GPRMC,171433.90,A,4018.3489,N,07958.6941,W,0.1,176.5,220819,9.2,W,D*37
13:16:32.067: <- $YXXDR,A,-0.5,D,PTCH,A,0.0,D,ROLL*75
13:16:32.127: <- $HCHDG,91.4,0.0,E,9.2,W*67
13:16:32.287: <- $WIMDA,30.2682,I,1.0250,B,28.3,C,,,51.5,,17.3,C,27.1,T,36.3,M,0.9,N,0.5,M*61
13:16:32.337: <- $WIMWV,306.5,R,1.0,N,A*22
13:16:32.387: <- $TIROT,-6.0,A*10
13:16:32.467: <- $GPZDA,171434.50,22,08,2019,00,00*65
13:16:32.527: <- $HCHDG,91.4,0.0,E,9.2,W*67
13:16:32.827: <- $WIMWV,297.4,R,0.9,N,A*22
13:16:33.007: <- $YXXDR,A,-0.5,D,PTCH,A,0.0,D,ROLL*75
13:16:33.057: <- $HCHDG,91.1,0.0,E,9.2,W*62
13:16:33.267: <- $GPGGA,171435.10,4018.3489,N,07958.6941,W,2,9,1.1,396.2,M,-33.0,M,,*61
13:16:33.387: <- $YXXDR,C,,C,WCHR,C,,C,WCHT,C,28.9,C,HINX,P,0.9777,B,STNP*58
13:16:33.457: <- $WIMWV,308.8,R,0.9,N,A*29
13:16:33.537: <- $HCHDG,91.2,0.0,E,9.2,W*61
13:16:33.747: <- $WIMDA,30.2653,I,1.0249,B,28.3,C,,,51.5,,17.3,C,36.0,T,45.2,M,1.0,N,0.5,M*69
13:16:33.807: <- $TIROT,0.4,A*3F
13:16:33.967: <- $GPRMC,171435.90,A,4018.3489,N,07958.6941,W,0.1,208.7,220819,9.2,W,D*39
13:16:34.017: <- $WIMWV,314.1,R,1.1,N,A*24
13:16:34.097: <- $YXXDR,A,-0.5,D,PTCH,A,0.0,D,ROLL*75
13:16:34.157: <- $HCHDG,91.2,0.0,E,9.2,W*61
13:16:34.427: <- $WIMWV,315.7,R,1.1,N,A*23
13:16:34.507: <- $GPZDA,171436.50,22,08,2019,00,00*67
13:16:34.577: <- $HCHDG,91.2,0.0,E,9.2,W*61
13:16:34.927: <- $WIMWV,317.4,R,1.1,N,A*22
13:16:35.007: <- $YXXDR,A,-0.6,D,PTCH,A,0.2,D,ROLL*74
13:16:35.087: <- $HCHDG,91.2,0.0,E,9.2,W*61
13:16:35.247: <- $WIMDA,30.2653,I,1.0249,B,28.3,C,,,51.5,,17.3,C,41.7,T,50.9,M,1.0,N,0.5,M*61
13:16:35.307: <- $TIROT,-7.1,A*10
13:16:35.437: <- $WIMWV,334.3,R,0.8,N,A*2C
13:16:35.587: <- $GPGSV,3,1,11,02,69,328,39,05,48,208,43,06,45,060,18,09,23,068,24*79
13:16:35.727: <- $GPGSV,3,2,,12,48,251,42,17,19,125,33,19,33,121,27,23,07,037,13*70
13:16:35.827: <- $GPGSV,3,3,,25,30,302,22,29,08,309,,44,30,229,38*44
13:16:35.887: <- $HCHDG,91.2,0.0,E,9.2,W*61
13:16:36.047: <- $GPRMC,171437.90,A,4018.3489,N,07958.6940,W,0.1,191.4,220819,9.2,W,D*3A
13:16:36.127: <- $YXXDR,A,-0.7,D,PTCH,A,0.2,D,ROLL*75
13:16:36.177: <- $WIMWV,317.0,R,0.6,N,A*20
13:16:36.317: <- $GPGGA,171438.10,4018.3489,N,07958.6940,W,2,9,1.1,396.0,M,-33.0,M,,*6F
13:16:36.387: <- $HCHDG,91.2,0.0,E,9.2,W*61
13:16:36.507: <- $YXXDR,C,,C,WCHR,C,,C,WCHT,C,28.8,C,HINX,P,0.9777,B,STNP*59
13:16:36.587: <- $GPZDA,171438.50,22,08,2019,00,00*69
13:16:36.637: <- $WIMWV,306.0,R,0.6,N,A*20
13:16:36.817: <- $WIMDA,30.2653,I,1.0249,B,28.2,C,,,51.5,,17.2,C,23.5,T,32.7,M,0.7,N,0.4,M*6A
13:16:36.867: <- $HCHDG,91.1,0.0,E,9.2,W*62
13:16:36.907: <- $TIROT,-4.8,A*1A
13:16:37.057: <- $YXXDR,A,-0.7,D,PTCH,A,-0.3,D,ROLL*59
13:16:37.117: <- $WIMWV,307.5,R,0.9,N,A*2B
13:16:37.337: <- $HCHDG,91.1,0.0,E,9.2,W*62
13:16:37.577: <- $WIMWV,316.3,R,0.8,N,A*2C
13:16:37.837: <- $HCHDG,91.1,0.0,E,9.2,W*62
13:16:37.977: <- $GPRMC,171439.90,A,4018.3490,N,07958.6940,W,0.1,199.1,220819,9.2,W,D*31
13:16:38.057: <- $YXXDR,A,-0.5,D,PTCH,A,0.0,D,ROLL*75
13:16:38.127: <- $WIMWV,321.0,R,0.8,N,A*2B
13:16:38.287: <- $WIMDA,30.2653,I,1.0249,B,28.3,C,,,51.5,,17.3,C,40.3,T,49.5,M,0.8,N,0.4,M*68
13:16:38.347: <- $HCHDG,91.1,0.0,E,9.2,W*62
13:16:38.377: <- $TIROT,-9.7,A*18
13:16:38.497: <- $GPZDA,171440.50,22,08,2019,00,00*66
13:16:38.577: <- $WIMWV,323.4,R,0.7,N,A*22
13:16:38.827: <- $HCHDG,91.1,0.0,E,9.2,W*62
13:16:39.057: <- $YXXDR,A,-0.5,D,PTCH,A,0.2,D,ROLL*77
13:16:39.117: <- $WIMWV,316.8,R,0.8,N,A*27
13:16:39.277: <- $GPGGA,171441.20,4018.3490,N,07958.6939,W,2,8,1.2,395.7,M,-33.0,M,,*62
13:16:39.337: <- $HCHDG,91.1,0.0,E,9.2,W*62
13:16:39.467: <- $YXXDR,C,,C,WCHR,C,,C,WCHT,C,28.8,C,HINX,P,0.9777,B,STNP*59
13:16:39.577: <- $WIMWV,321.7,R,0.9,N,A*2D
13:16:39.737: <- $WIMDA,30.2623,I,1.0248,B,28.2,C,,,51.5,,17.2,C,41.2,T,50.4,M,0.9,N,0.5,M*67
13:16:39.837: <- $HCHDG,91.1,0.0,E,9.2,W*62
13:16:39.867: <- $TIROT,-9.5,A*1A
13:16:40.027: <- $GPRMC,171441.90,A,4018.3491,N,07958.6939,W,0.1,177.6,220819,9.2,W,D*36
13:16:40.107: <- $YXXDR,A,-0.4,D,PTCH,A,0.3,D,ROLL*77
13:16:40.157: <- $WIMWV,323.4,R,0.8,N,A*2D
13:16:40.297: <- $GPGSV,3,1,11,02,69,328,39,05,48,208,43,06,45,060,18,09,23,068,21*7C
13:16:40.447: <- $GPGSV,3,2,,12,48,251,41,17,19,125,35,19,33,121,29,23,07,037,14*7C
13:16:40.557: <- $GPGSV,3,3,,25,30,302,24,29,08,309,,44,30,229,38*42
13:16:40.637: <- $GPZDA,171442.60,22,08,2019,00,00*67
13:16:40.687: <- $WIMWV,316.0,R,1.0,N,A*26
13:16:40.747: <- $HCHDG,90.8,0.0,E,9.2,W*6A
13:16:41.057: <- $YXXDR,A,-0.6,D,PTCH,A,0.2,D,ROLL*74
13:16:41.137: <- $WIMWV,302.1,R,0.9,N,A*2A
13:16:41.297: <- $WIMDA,30.2623,I,1.0248,B,28.2,C,,,51.5,,17.2,C,20.9,T,30.1,M,0.9,N,0.5,M*68
13:16:41.357: <- $HCHDG,90.8,0.0,E,9.2,W*6A
13:16:41.387: <- $TIROT,-1.8,A*1F
13:16:41.627: <- $WIMWV,302.8,R,0.7,N,A*2D
13:16:41.777: <- $HCHDG,90.8,0.0,E,9.2,W*6A
13:16:41.977: <- $GPRMC,171443.90,A,4018.3491,N,07958.6938,W,0.1,170.2,220819,9.2,W,D*36
13:16:42.057: <- $YXXDR,A,-0.4,D,PTCH,A,0.2,D,ROLL*76
13:16:42.127: <- $WIMWV,300.8,R,0.8,N,A*20
13:16:42.287: <- $GPGGA,171444.20,4018.3491,N,07958.6938,W,2,9,1.1,395.4,M,-33.0,M,,*66
13:16:42.337: <- $HCHDG,90.8,0.0,E,9.2,W*6A
13:16:42.457: <- $YXXDR,C,,C,WCHR,C,,C,WCHT,C,28.9,C,HINX,P,0.9777,B,STNP*58
13:16:42.557: <- $GPZDA,171444.60,22,08,2019,00,00*61
13:16:42.637: <- $WIMWV,295.7,R,0.8,N,A*22
13:16:42.797: <- $WIMDA,30.2623,I,1.0248,B,28.3,C,,,51.5,,17.3,C,17.4,T,26.6,M,0.8,N,0.4,M*61
13:16:42.857: <- $HCHDG,91.0,0.0,E,9.2,W*63
13:16:42.897: <- $TIROT,-10.7,A*20
13:16:43.057: <- $YXXDR,A,-0.4,D,PTCH,A,0.3,D,ROLL*77
13:16:43.137: <- $WIMWV,308.4,R,0.7,N,A*2B
13:16:43.277: <- $HCHDG,90.8,0.0,E,9.2,W*6A
13:16:43.627: <- $WIMWV,314.1,R,0.7,N,A*23
13:16:43.777: <- $HCHDG,90.8,0.0,E,9.2,W*6A
13:16:43.977: <- $GPRMC,171445.90,A,4018.3491,N,07958.6937,W,0.1,150.1,220819,9.2,W,D*3E
13:16:44.057: <- $YXXDR,A,-0.5,D,PTCH,A,0.2,D,ROLL*77
13:16:44.127: <- $WIMWV,319.7,R,0.8,N,A*27
13:16:44.287: <- $WIMDA,30.2623,I,1.0248,B,28.3,C,,,51.5,,17.3,C,41.2,T,50.4,M,0.7,N,0.4,M*68
13:16:44.347: <- $HCHDG,90.7,0.0,E,9.2,W*65
13:16:44.377: <- $TIROT,-3.3,A*16
13:16:44.557: <- $GPZDA,171446.60,22,08,2019,00,00*63
13:16:44.637: <- $WIMWV,318.5,R,0.8,N,A*24
13:16:44.777: <- $GPGSV,3,1,11,02,69,328,40,05,48,208,43,06,45,060,26,09,23,068,23*7D
13:16:44.927: <- $GPGSV,3,2,,12,48,251,41,17,19,125,37,19,33,121,31,23,07,037,10*73
13:16:45.037: <- $GPGSV,3,3,,25,30,302,24,29,08,309,,44,30,229,38*42
13:16:45.087: <- $HCHDG,91.0,0.0,E,9.2,W*63
13:16:45.167: <- $YXXDR,A,-0.7,D,PTCH,A,-0.2,D,ROLL*58
13:16:45.227: <- $WIMWV,324.5,R,0.9,N,A*2A
13:16:45.367: <- $GPGGA,171447.20,4018.3491,N,07958.6936,W,2,9,1.1,395.1,M,-33.0,M,,*6E
13:16:45.497: <- $YXXDR,C,,C,WCHR,C,,C,WCHT,C,28.8,C,HINX,P,0.9777,B,STNP*59
13:16:45.567: <- $HCHDG,90.7,0.0,E,9.2,W*65
13:16:45.627: <- $WIMWV,327.8,R,1.1,N,A*2D
13:16:45.807: <- $WIMDA,30.2623,I,1.0248,B,28.2,C,,,51.5,,17.2,C,49.3,T,58.5,M,1.1,N,0.6,M*6D
13:16:45.837: <- $TIROT,-12.3,A*26
13:16:45.997: <- $GPRMC,171447.90,A,4018.3491,N,07958.6936,W,0.0,136.3,220819,9.2,W,D*3E
13:16:46.047: <- $HCHDG,91.0,0.0,E,9.2,W*63
13:16:46.127: <- $YXXDR,A,-0.7,D,PTCH,A,0.1,D,ROLL*76
13:16:46.187: <- $WIMWV,331.9,R,1.1,N,A*2B
13:16:46.537: <- $HCHDG,91.0,0.0,E,9.2,W*63
13:16:46.617: <- $GPZDA,171448.60,22,08,2019,00,00*6D
13:16:46.667: <- $WIMWV,329.3,R,1.0,N,A*29
13:16:47.037: <- $HCHDG,91.0,0.0,E,9.2,W*63
13:16:47.117: <- $YXXDR,A,-0.4,D,PTCH,A,0.0,D,ROLL*74
13:16:47.167: <- $WIMWV,291.2,R,1.1,N,A*2B
13:16:47.337: <- $WIMDA,30.2623,I,1.0248,B,28.3,C,,,51.6,,17.3,C,12.9,T,22.1,M,1.1,N,0.6,M*63
13:16:47.367: <- $TIROT,-3.5,A*10
13:16:47.527: <- $HCHDG,91.0,0.0,E,9.2,W*63
13:16:47.627: <- $WIMWV,255.2,R,1.2,N,A*20
13:16:47.977: <- $GPRMC,171449.90,A,4018.3491,N,07958.6935,W,0.0,134.0,220819,9.2,W,D*32
13:16:48.047: <- $HCHDG,90.8,0.0,E,9.2,W*6A
13:16:48.127: <- $YXXDR,A,-0.3,D,PTCH,A,0.3,D,ROLL*70
13:16:48.167: <- $WIMWV,260.8,R,1.3,N,A*2D
13:16:48.317: <- $GPGGA,171450.20,4018.3491,N,07958.6935,W,2,9,1.1,394.9,M,-33.0,M,,*62
13:16:48.447: <- $YXXDR,C,,C,WCHR,C,,C,WCHT,C,28.8,C,HINX,P,0.9777,B,STNP*59
13:16:48.537: <- $HCHDG,90.8,0.0,E,9.2,W*6A
13:16:48.617: <- $GPZDA,171450.60,22,08,2019,00,00*64
13:16:48.667: <- $WIMWV,262.1,R,1.3,N,A*26
13:16:48.847: <- $WIMDA,30.2623,I,1.0248,B,28.2,C,,,51.6,,17.2,C,343.8,T,353.0,M,1.3,N,0.7,M*62
13:16:48.877: <- $TIROT,-7.6,A*17
13:16:49.037: <- $HCHDG,91.0,0.0,E,9.2,W*63
13:16:49.117: <- $YXXDR,A,-0.5,D,PTCH,A,0.0,D,ROLL*75
13:16:49.167: <- $WIMWV,272.2,R,1.1,N,A*26
13:16:49.327: <- $GPGSV,3,1,11,02,69,328,40,05,48,208,41,06,45,060,27,09,23,068,27*7A
13:16:49.447: <- $GPGSV,3,2,,12,48,251,39,17,19,125,37,19,33,121,31,23,07,037,15*79
13:16:49.567: <- $GPGSV,3,3,,25,30,302,25,29,08,309,,44,30,229,38*43
13:16:49.627: <- $HCHDG,90.8,0.0,E,9.2,W*6A
13:16:49.677: <- $WIMWV,294.2,R,0.9,N,A*27
13:16:49.977: <- $GPRMC,171451.90,A,4018.3490,N,07958.6934,W,0.1,134.6,220819,9.2,W,D*3C
13:16:50.047: <- $HCHDG,90.8,0.0,E,9.2,W*6A
13:16:50.127: <- $YXXDR,A,-0.4,D,PTCH,A,0.1,D,ROLL*75
13:16:50.167: <- $WIMWV,307.6,R,1.0,N,A*20
13:16:50.327: <- $WIMDA,30.2594,I,1.0247,B,28.2,C,,,51.6,,17.2,C,29.2,T,38.4,M,0.9,N,0.5,M*64
13:16:50.377: <- $TIROT,-10.6,A*21
13:16:50.537: <- $HCHDG,90.8,0.0,E,9.2,W*6A
13:16:50.617: <- $GPZDA,171452.60,22,08,2019,00,00*66
13:16:50.667: <- $WIMWV,307.9,R,0.8,N,A*26
13:16:51.037: <- $HCHDG,91.0,0.0,E,9.2,W*63
13:16:51.117: <- $YXXDR,A,-1.0,D,PTCH,A,0.3,D,ROLL*72
13:16:51.177: <- $WIMWV,289.5,R,0.8,N,A*2D
13:16:51.327: <- $GPGGA,171453.10,4018.3490,N,07958.6934,W,2,9,1.1,394.7,M,-33.0,M,,*6C
13:16:51.447: <- $YXXDR,C,,C,WCHR,C,,C,WCHT,C,28.8,C,HINX,P,0.9777,B,STNP*59
13:16:51.527: <- $HCHDG,91.0,0.0,E,9.2,W*63
13:16:51.637: <- $WIMWV,272.2,R,0.3,N,A*25
13:16:51.797: <- $WIMDA,30.2594,I,1.0247,B,28.2,C,,,51.6,,17.2,C,354.0,T,3.2,M,0.3,N,0.2,M*6C
13:16:51.837: <- $TIROT,-10.9,A*2E
13:16:51.997: <- $GPRMC,171453.90,A,4018.3490,N,07958.6933,W,0.0,127.0,220819,9.2,W,D*3C
13:16:52.037: <- $HCHDG,91.0,0.0,E,9.2,W*63
13:16:52.117: <- $YXXDR,A,-0.6,D,PTCH,A,0.2,D,ROLL*74
13:16:52.187: <- $WIMWV,230.7,R,0.5,N,A*20
13:16:52.537: <- $HCHDG,91.0,0.0,E,9.2,W*63
13:16:52.617: <- $GPZDA,171454.60,22,08,2019,00,00*60
13:16:52.667: <- $WIMWV,235.1,R,0.4,N,A*22
13:16:53.037: <- $HCHDG,90.8,0.0,E,9.2,W*6A
13:16:53.117: <- $YXXDR,A,-0.3,D,PTCH,A,0.3,D,ROLL*70
13:16:53.177: <- $WIMWV,318.7,R,0.4,N,A*2A
13:16:53.337: <- $WIMDA,30.2594,I,1.0247,B,28.2,C,,,51.6,,17.2,C,40.3,T,49.5,M,0.4,N,0.2,M*67
13:16:53.367: <- $TIROT,-14.3,A*20
13:16:53.527: <- $HCHDG,90.8,0.0,E,9.2,W*6A
13:16:53.637: <- $WIMWV,336.7,R,0.6,N,A*24
13:16:53.787: <- $GPGSV,3,1,11,02,69,328,40,05,48,208,39,06,45,060,30,09,23,068,27*73
13:16:53.927: <- $GPGSV,3,2,,12,48,251,36,17,19,125,36,19,33,121,31,23,07,036,11*72
13:16:54.037: <- $GPGSV,3,3,,25,30,302,25,29,08,309,,44,30,229,38*43
13:16:54.087: <- $HCHDG,90.8,0.0,E,9.2,W*6A
13:16:54.247: <- $GPRMC,171456.10,A,4018.3489,N,07958.6933,W,0.0,112.7,220819,9.2,W,D*38
13:16:54.327: <- $YXXDR,A,-0.6,D,PTCH,A,0.0,D,ROLL*76
13:16:54.377: <- $WIMWV,324.9,R,1.0,N,A*2E
13:16:54.507: <- $YXXDR,C,,C,WCHR,C,,C,WCHT,C,28.8,C,HINX,P,0.9778,B,STNP*56
13:16:54.647: <- $GPGGA,171456.50,4018.3489,N,07958.6932,W,2,9,1.1,394.5,M,-33.0,M,,*61
13:16:54.727: <- $GPZDA,171456.70,22,08,2019,00,00*63
13:16:54.797: <- $HCHDG,91.1,0.0,E,9.2,W*62
13:16:54.957: <- $WIMDA,30.2623,I,1.0248,B,28.2,C,,,51.6,,17.2,C,41.5,T,50.7,M,1.0,N,0.5,M*68
13:16:55.017: <- $WIMWV,323.2,R,1.0,N,A*22
13:16:55.047: <- $TIROT,-11.5,A*23
13:16:55.227: <- $HCHDG,91.1,0.0,E,9.2,W*62
13:16:55.307: <- $YXXDR,A,-0.7,D,PTCH,A,-0.3,D,ROLL*59
13:16:55.437: <- $WIMWV,325.2,R,1.0,N,A*24
13:16:55.737: <- $HCHDG,91.1,0.0,E,9.2,W*62
13:16:55.927: <- $WIMWV,329.8,R,1.0,N,A*22
13:16:56.167: <- $GPRMC,171458.10,A,4018.3488,N,07958.6932,W,0.1,321.3,220819,9.2,W,D*31
13:16:56.237: <- $HCHDG,90.8,0.0,E,9.2,W*6A
13:16:56.317: <- $YXXDR,A,-0.4,D,PTCH,A,0.0,D,ROLL*74
13:16:56.467: <- $WIMDA,30.2594,I,1.0247,B,28.2,C,,,51.6,,17.2,C,52.7,T,61.9,M,1.1,N,0.6,M*66
13:16:56.537: <- $WIMWV,329.5,R,1.0,N,A*2F
13:16:56.567: <- $TIROT,-6.5,A*15
13:16:56.667: <- $GPZDA,171458.70,22,08,2019,00,00*6D
13:16:56.747: <- $HCHDG,90.8,0.0,E,9.2,W*6A
13:16:56.937: <- $WIMWV,330.7,R,1.1,N,A*24
13:16:57.227: <- $HCHDG,90.8,0.0,E,9.2,W*6A
13:16:57.317: <- $YXXDR,A,-0.3,D,PTCH,A,-0.1,D,ROLL*5F
13:16:57.447: <- $YXXDR,C,,C,WCHR,C,,C,WCHT,C,28.9,C,HINX,P,0.9777,B,STNP*58
13:16:57.507: <- $WIMWV,350.6,R,1.2,N,A*20
13:16:57.657: <- $GPGGA,171459.50,4018.3488,N,07958.6932,W,2,9,1.1,394.3,M,-33.0,M,,*69
13:16:57.737: <- $HCHDG,90.8,0.0,E,9.2,W*6A
13:16:57.897: <- $WIMDA,30.2594,I,1.0247,B,28.3,C,,,51.6,,17.3,C,72.5,T,81.7,M,1.0,N,0.5,M*64
13:16:57.947: <- $WIMWV,0.7,R,0.8,N,A*2C
13:16:58.007: <- $TIROT,-9.7,A*18
13:16:58.167: <- $GPRMC,171500.10,A,4018.3487,N,07958.6932,W,0.1,116.3,220819,9.2,W,D*34
13:16:58.327: <- $GPGSV,3,1,11,02,69,328,39,05,48,208,36,06,45,060,30,09,23,068,27*72
13:16:58.457: <- $GPGSV,3,2,,12,48,251,33,17,19,126,33,19,33,121,28,23,07,036,13*7B
13:16:58.587: <- $GPGSV,3,3,,25,30,302,19,29,08,309,00,44,30,229,38*4C
13:16:58.667: <- $YXXDR,A,-0.7,D,PTCH,A,0.2,D,ROLL*75
13:16:58.707: <- $HCHDG,91.1,0.0,E,9.2,W*62
13:16:58.777: <- $WIMWV,37.3,R,1.3,N,A*16
13:16:58.837: <- $GPZDA,171500.80,22,08,2019,00,00*6E
13:16:59.127: <- $HCHDG,91.0,0.0,E,9.2,W*63
13:16:59.187: <- $WIMWV,19.8,R,1.4,N,A*16
13:16:59.397: <- $WIMDA,30.2623,I,1.0248,B,28.2,C,,,51.7,,17.3,C,101.6,T,110.8,M,1.4,N,0.7,M*62
13:16:59.557: <- $YXXDR,A,-0.7,D,PTCH,A,0.2,D,ROLL*75
13:16:59.587: <- $TIROT,-7.8,A*19
13:16:59.657: <- $HCHDG,91.0,0.0,E,9.2,W*63
13:16:59.707: <- $WIMWV,20.8,R,1.1,N,A*19
13:17:00.167: <- $GPRMC,171502.10,A,4018.3486,N,07958.6931,W,0.0,120.2,220819,9.2,W,D*31
13:17:00.227: <- $HCHDG,91.0,0.0,E,9.2,W*63
13:17:00.297: <- $WIMWV,22.4,R,0.8,N,A*1F
13:17:00.457: <- $YXXDR,C,,C,WCHR,C,,C,WCHT,C,28.9,C,HINX,P,0.9777,B,STNP*58
13:17:00.597: <- $GPGGA,171502.50,4018.3486,N,07958.6931,W,2,9,1.1,394.1,M,-33.0,M,,*69
13:17:00.677: <- $YXXDR,A,-0.5,D,PTCH,A,0.2,D,ROLL*77
13:17:00.747: <- $HCHDG,91.0,0.0,E,9.2,W*63
13:17:00.787: <- $WIMWV,331.7,R,0.7,N,A*22
13:17:00.867: <- $GPZDA,171502.80,22,08,2019,00,00*6C
13:17:01.027: <- $WIMDA,30.2594,I,1.0247,B,28.3,C,,,51.7,,17.3,C,55.4,T,64.6,M,0.7,N,0.4,M*6C
13:17:01.077: <- $TIROT,-3.8,A*1D
13:17:01.187: <- $HCHDG,91.1,0.0,E,9.2,W*62
13:17:01.237: <- $WIMWV,332.6,R,0.8,N,A*2F
13:17:01.607: <- $YXXDR,A,-0.7,D,PTCH,A,0.0,D,ROLL*77
13:17:01.687: <- $HCHDG,91.1,0.0,E,9.2,W*62
13:17:01.737: <- $WIMWV,29.5,R,0.5,N,A*18
13:17:02.187: <- $GPRMC,171504.10,A,4018.3485,N,07958.6931,W,0.0,119.5,220819,9.2,W,D*39
13:17:02.235: <- $HCHDG,91.0,0.0,E,9.2,W*63
13:17:02.299: <- $WIMWV,28.8,R,0.5,N,A*14
13:17:02.459: <- $WIMDA,30.2564,I,1.0246,B,28.5,C,,,51.8,,17.6,C,82.4,T,91.6,M,0.5,N,0.3,M*6B
13:17:02.523: <- $TIROT,0.0,A*3B
13:17:02.603: <- $YXXDR,A,-1.0,D,PTCH,A,0.1,D,ROLL*70
13:17:02.683: <- $HCHDG,91.3,0.0,E,9.2,W*60
13:17:02.827: <- $GPGSV,3,1,11,02,69,328,39,05,48,208,34,06,44,060,29,09,23,068,27*79
13:17:02.971: <- $GPGSV,3,2,,12,48,251,30,17,19,126,32,19,33,121,27,23,06,036,05*70
13:17:03.083: <- $GPGSV,3,3,,25,30,302,20,29,08,309,,44,30,229,38*46
13:17:03.163: <- $GPZDA,171505.10,22,08,2019,00,00*62
13:17:03.227: <- $WIMWV,329.3,R,0.6,N,A*2E
13:17:03.275: <- $HCHDG,91.3,0.0,E,9.2,W*60
13:17:03.451: <- $YXXDR,C,,C,WCHR,C,,C,WCHT,C,29.0,C,HINX,P,0.9777,B,STNP*50
13:17:03.611: <- $GPGGA,171505.50,4018.3485,N,07958.6930,W,2,9,1.1,393.8,M,-33.0,M,,*62
13:17:03.691: <- $YXXDR,A,-0.4,D,PTCH,A,0.2,D,ROLL*76
13:17:03.738: <- $WIMWV,334.3,R,0.7,N,A*23
13:17:03.802: <- $HCHDG,91.1,0.0,E,9.2,W*62
13:17:03.962: <- $WIMDA,30.2564,I,1.0246,B,28.4,C,,,51.8,,17.5,C,49.5,T,58.7,M,0.6,N,0.3,M*68
13:17:04.026: <- $TIROT,-2.9,A*1D
13:17:04.186: <- $GPRMC,171506.10,A,4018.3484,N,07958.6930,W,0.1,110.4,220819,9.2,W,D*32
13:17:04.234: <- $WIMWV,329.9,R,0.7,N,A*25
13:17:04.299: <- $HCHDG,91.1,0.0,E,9.2,W*62
13:17:04.602: <- $YXXDR,A,-0.4,D,PTCH,A,0.0,D,ROLL*74
13:17:04.682: <- $WIMWV,332.0,R,0.8,N,A*29
13:17:04.746: <- $HCHDG,91.1,0.0,E,9.2,W*62
13:17:05.114: <- $GPZDA,171507.10,22,08,2019,00,00*60
13:17:05.193: <- $WIMWV,318.7,R,1.1,N,A*2E
13:17:05.242: <- $HCHDG,91.1,0.0,E,9.2,W*62
13:17:05.434: <- $WIMDA,30.2535,I,1.0245,B,28.3,C,,,51.8,,17.4,C,46.3,T,55.5,M,1.3,N,0.7,M*6F
13:17:05.514: <- $TIROT,-7.6,A*17
13:17:05.609: <- $YXXDR,A,-0.5,D,PTCH,A,0.0,D,ROLL*75
13:17:05.689: <- $WIMWV,323.1,R,1.3,N,A*22
13:17:05.737: <- $HCHDG,91.1,0.0,E,9.2,W*62
13:17:06.185: <- $GPRMC,171508.10,A,4018.3483,N,07958.6929,W,0.0,116.5,220819,9.2,W,D*35
13:17:06.233: <- $WIMWV,317.1,R,1.0,N,A*26
13:17:06.297: <- $HCHDG,91.1,0.0,E,9.2,W*62
13:17:06.457: <- $YXXDR,C,,C,WCHR,C,,C,WCHT,C,29.0,C,HINX,P,0.9778,B,STNP*5F
13:17:06.602: <- $GPGGA,171508.50,4018.3483,N,07958.6929,W,2,9,1.1,393.6,M,-33.0,M,,*6F
13:17:06.682: <- $YXXDR,A,-0.4,D,PTCH,A,0.3,D,ROLL*77
13:17:06.745: <- $WIMWV,318.3,R,1.0,N,A*2B
13:17:06.793: <- $HCHDG,91.1,0.0,E,9.2,W*62
13:17:06.953: <- $WIMDA,30.2594,I,1.0247,B,28.4,C,,,51.8,,17.5,C,37.0,T,46.2,M,0.8,N,0.4,M*69
13:17:07.017: <- $TIROT,-5.9,A*1A
13:17:07.113: <- $GPZDA,171509.10,22,08,2019,00,00*6E
13:17:07.193: <- $WIMWV,320.9,R,0.9,N,A*22
13:17:07.337: <- $GPGSV,3,1,11,02,69,328,39,05,48,208,32,06,44,060,29,09,23,068,25*7D
13:17:07.465: <- $GPGSV,3,2,,12,48,251,30,17,19,126,32,19,33,121,28,23,06,036,09*73
13:17:07.577: <- $GPGSV,3,3,,25,30,302,25,29,08,309,,44,30,229,38*43
13:17:07.641: <- $HCHDG,91.4,0.0,E,9.2,W*67
13:17:07.720: <- $YXXDR,A,-0.7,D,PTCH,A,-0.3,D,ROLL*59
13:17:07.784: <- $WIMWV,337.6,R,0.9,N,A*2B
13:17:08.040: <- $HCHDG,91.1,0.0,E,9.2,W*62
13:17:08.184: <- $GPRMC,171510.10,A,4018.3482,N,07958.6929,W,0.1,33.5,220819,9.2,W,D*0A
13:17:08.249: <- $WIMWV,0.7,R,0.6,N,A*22
13:17:08.457: <- $WIMDA,30.2564,I,1.0246,B,28.4,C,,,51.8,,17.5,C,91.6,T,100.8,M,0.5,N,0.3,M*5E
13:17:08.537: <- $HCHDG,91.1,0.0,E,9.2,W*62
13:17:08.584: <- $TIROT,-8.2,A*1C
13:17:08.664: <- $YXXDR,A,-0.4,D,PTCH,A,0.3,D,ROLL*77
13:17:08.712: <- $WIMWV,336.0,R,0.7,N,A*22
13:17:09.048: <- $HCHDG,91.2,0.0,E,9.2,W*61
13:17:09.112: <- $GPZDA,171511.10,22,08,2019,00,00*67
13:17:09.176: <- $WIMWV,321.4,R,1.0,N,A*26
13:17:09.448: <- $YXXDR,C,,C,WCHR,C,,C,WCHT,C,29.0,C,HINX,P,0.9777,B,STNP*50
13:17:09.609: <- $GPGGA,171511.50,4018.3480,N,07958.6930,W,2,9,1.1,393.7,M,-33.0,M,,*6D
13:17:09.657: <- $HCHDG,91.2,0.0,E,9.2,W*61
13:17:09.737: <- $YXXDR,A,-0.5,D,PTCH,A,0.1,D,ROLL*74
13:17:09.801: <- $WIMWV,319.3,R,1.4,N,A*2E
13:17:09.960: <- $WIMDA,30.2564,I,1.0246,B,28.4,C,,,51.7,,17.4,C,44.2,T,53.4,M,1.4,N,0.7,M*63
13:17:10.024: <- $TIROT,-4.4,A*16
13:17:10.088: <- $HCHDG,91.2,0.0,E,9.2,W*61
13:17:10.232: <- $GPRMC,171512.10,A,4018.3480,N,07958.6930,W,0.1,31.5,220819,9.2,W,D*00
13:17:10.297: <- $WIMWV,314.0,R,1.5,N,A*21
13:17:10.584: <- $HCHDG,91.2,0.0,E,9.2,W*61
13:17:10.664: <- $YXXDR,A,-0.5,D,PTCH,A,0.1,D,ROLL*74
13:17:10.744: <- $WIMWV,308.7,R,2.0,N,A*2D
13:17:11.080: <- $HCHDG,91.2,0.0,E,9.2,W*61
13:17:11.160: <- $GPZDA,171513.10,22,08,2019,00,00*65
13:17:11.240: <- $WIMWV,309.9,R,1.9,N,A*28
13:17:11.449: <- $WIMDA,30.2564,I,1.0246,B,28.3,C,,,51.6,,17.3,C,31.1,T,40.3,M,1.8,N,0.9,M*64
13:17:11.529: <- $TIROT,-5.8,A*1B
13:17:11.592: <- $HCHDG,91.2,0.0,E,9.2,W*61
13:17:11.672: <- $YXXDR,A,-0.7,D,PTCH,A,0.0,D,ROLL*77
13:17:11.816: <- $GPGSV,3,1,11,02,69,328,39,05,48,208,29,06,44,060,27,09,23,067,27*74
13:17:11.960: <- $GPGSV,3,2,,12,48,251,34,17,19,126,33,19,33,121,28,23,06,036,07*78
13:17:12.056: <- $GPGSV,3,3,,25,30,302,25,29,08,310,,44,30,229,38*4B
13:17:12.120: <- $WIMWV,307.9,R,2.5,N,A*29
13:17:12.184: <- $HCHDG,91.2,0.0,E,9.2,W*61
13:17:12.328: <- $GPRMC,171514.10,A,4018.3478,N,07958.6930,W,0.1,21.4,220819,9.2,W,D*01
13:17:12.456: <- $YXXDR,C,,C,WCHR,C,,C,WCHT,C,28.9,C,HINX,P,0.9777,B,STNP*58
13:17:12.600: <- $GPGGA,171514.50,4018.3478,N,07958.6930,W,2,9,1.1,393.8,M,-33.0,M,,*60
13:17:12.663: <- $WIMWV,305.9,R,2.4,N,A*2A
13:17:12.727: <- $HCHDG,91.2,0.0,E,9.2,W*61
13:17:12.791: <- $YXXDR,A,-0.7,D,PTCH,A,0.0,D,ROLL*77
13:17:12.967: <- $WIMDA,30.2564,I,1.0246,B,28.3,C,,,51.6,,17.3,C,22.2,T,31.4,M,2.4,N,1.2,M*61
13:17:13.015: <- $TIROT,-5.0,A*13
13:17:13.079: <- $WIMWV,295.5,R,2.4,N,A*2E
13:17:13.159: <- $GPZDA,171515.10,22,08,2019,00,00*63
13:17:13.223: <- $HCHDG,91.1,0.0,E,9.2,W*62
13:17:13.591: <- $WIMWV,294.1,R,2.3,N,A*2C
13:17:13.639: <- $HCHDG,91.1,0.0,E,9.2,W*62
13:17:13.719: <- $YXXDR,A,-0.4,D,PTCH,A,0.2,D,ROLL*76
13:17:14.087: <- $WIMWV,292.3,R,2.2,N,A*29
13:17:14.151: <- $HCHDG,90.8,0.0,E,9.2,W*6A
13:17:14.295: <- $GPRMC,171516.10,A,4018.3477,N,07958.6930,W,0.0,49.0,220819,9.2,W,D*07
13:17:14.455: <- $WIMDA,30.2564,I,1.0246,B,28.3,C,,,51.6,,17.3,C,14.0,T,23.2,M,2.2,N,1.1,M*66
13:17:14.519: <- $TIROT,-9.9,A*16
13:17:14.583: <- $WIMWV,292.9,R,2.3,N,A*22
13:17:14.647: <- $HCHDG,91.1,0.0,E,9.2,W*62
13:17:14.726: <- $YXXDR,A,-0.6,D,PTCH,A,-0.1,D,ROLL*5A
13:17:15.078: <- $WIMWV,293.2,R,2.1,N,A*2A
13:17:15.158: <- $GPZDA,171517.10,22,08,2019,00,00*61
13:17:15.222: <- $HCHDG,91.1,0.0,E,9.2,W*62
13:17:15.463: <- $YXXDR,C,,C,WCHR,C,,C,WCHT,C,28.9,C,HINX,P,0.9777,B,STNP*58
13:17:15.606: <- $GPGGA,171517.50,4018.3477,N,07958.6931,W,2,9,1.1,393.8,M,-33.0,M,,*6D
13:17:15.654: <- $WIMWV,293.5,R,2.1,N,A*2D
13:17:15.718: <- $HCHDG,91.1,0.0,E,9.2,W*62
13:17:15.798: <- $YXXDR,A,-0.6,D,PTCH,A,0.3,D,ROLL*75
13:17:15.958: <- $WIMDA,30.2564,I,1.0246,B,28.3,C,,,51.6,,17.3,C,19.7,T,28.9,M,2.2,N,1.1,M*6C
13:17:16.022: <- $TIROT,-3.1,A*14
13:17:16.086: <- $WIMWV,300.9,R,2.2,N,A*29
13:17:16.150: <- $HCHDG,91.1,0.0,E,9.2,W*62
13:17:16.294: <- $GPRMC,171518.10,A,4018.3477,N,07958.6931,W,0.0,58.1,220819,9.2,W,D*09
13:17:16.439: <- $GPGSV,3,1,11,02,69,328,39,05,49,208,33,06,44,060,24,09,23,067,28*72
13:17:16.582: <- $GPGSV,3,2,,12,48,251,35,17,19,126,34,19,33,121,28,23,06,036,08*71
13:17:16.694: <- $GPGSV,3,3,,25,30,302,23,29,08,310,,44,30,229,38*4D
13:17:16.742: <- $HCHDG,91.1,0.0,E,9.2,W*62
13:17:16.822: <- $YXXDR,A,-0.8,D,PTCH,A,0.3,D,ROLL*7B
13:17:16.886: <- $WIMWV,303.9,R,2.2,N,A*2A
13:17:17.110: <- $GPZDA,171519.10,22,08,2019,00,00*6F
13:17:17.190: <- $HCHDG,91.1,0.0,E,9.2,W*62
13:17:17.286: <- $WIMWV,294.5,R,2.1,N,A*2A
13:17:17.446: <- $WIMDA,30.2594,I,1.0247,B,28.3,C,,,51.6,,17.3,C,16.5,T,25.7,M,2.1,N,1.1,M*6F
13:17:17.526: <- $TIROT,-4.7,A*15
13:17:17.685: <- $HCHDG,91.1,0.0,E,9.2,W*62
13:17:17.765: <- $YXXDR,A,-0.5,D,PTCH,A,0.2,D,ROLL*77
13:17:17.829: <- $WIMWV,292.9,R,2.1,N,A*20
13:17:18.230: <- $GPRMC,171520.10,A,4018.3477,N,07958.6931,W,0.0,95.9,220819,9.2,W,D*0B
13:17:18.293: <- $HCHDG,91.1,0.0,E,9.2,W*62
13:17:18.341: <- $WIMWV,292.9,R,2.0,N,A*21
13:17:18.470: <- $YXXDR,C,,C,WCHR,C,,C,WCHT,C,28.9,C,HINX,P,0.9777,B,STNP*58
13:17:18.613: <- $GPGGA,171520.50,4018.3477,N,07958.6931,W,2,9,1.1,393.8,M,-33.0,M,,*69
13:17:18.693: <- $HCHDG,91.1,0.0,E,9.2,W*62
13:17:18.773: <- $YXXDR,A,-0.7,D,PTCH,A,0.4,D,ROLL*73
13:17:18.821: <- $WIMWV,301.9,R,2.3,N,A*29
13:17:18.981: <- $WIMDA,30.2564,I,1.0246,B,28.3,C,,,51.6,,17.3,C,25.2,T,34.4,M,2.3,N,1.2,M*64
13:17:19.029: <- $TIROT,-1.9,A*1E
13:17:19.109: <- $GPZDA,171521.10,22,08,2019,00,00*64
13:17:19.189: <- $HCHDG,91.1,0.0,E,9.2,W*62
13:17:19.286: <- $WIMWV,303.3,R,2.3,N,A*21
13:17:19.685: <- $HCHDG,91.1,0.0,E,9.2,W*62
13:17:19.765: <- $YXXDR,A,-0.4,D,PTCH,A,0.3,D,ROLL*77
13:17:19.829: <- $WIMWV,291.2,R,1.9,N,A*23
13:17:20.229: <- $GPRMC,171522.10,A,4018.3476,N,07958.6932,W,0.0,76.4,220819,9.2,W,D*0B
13:17:20.293: <- $HCHDG,90.8,0.0,E,9.2,W*6A
13:17:20.341: <- $WIMWV,287.1,R,2.0,N,A*2D
13:17:20.501: <- $WIMDA,30.2564,I,1.0246,B,28.3,C,,,51.6,,17.3,C,7.6,T,16.8,M,1.9,N,1.0,M*57
13:17:20.548: <- $TIROT,-2.9,A*1D
13:17:20.692: <- $HCHDG,90.8,0.0,E,9.2,W*6A
13:17:20.772: <- $YXXDR,A,-0.2,D,PTCH,A,0.1,D,ROLL*73
13:17:20.820: <- $WIMWV,286.0,R,1.9,N,A*27
13:17:20.964: <- $GPGSV,3,1,11,02,69,329,39,05,49,208,38,06,44,060,23,09,23,067,29*7E
13:17:21.108: <- $GPGSV,3,2,,12,48,251,37,17,19,126,33,19,33,121,27,23,06,036,*73
13:17:21.220: <- $GPGSV,3,3,,25,30,302,24,29,08,310,,44,30,229,38*4A
13:17:21.300: <- $GPZDA,171523.20,22,08,2019,00,00*65
13:17:21.348: <- $WIMWV,289.1,R,2.1,N,A*22
13:17:21.412: <- $HCHDG,90.8,0.0,E,9.2,W*6A
13:17:21.540: <- $YXXDR,C,,C,WCHR,C,,C,WCHT,C,29.0,C,HINX,P,0.9777,B,STNP*50
13:17:21.684: <- $GPGGA,171523.60,4018.3476,N,07958.6932,W,2,9,1.1,393.7,M,-33.0,M,,*64
13:17:21.764: <- $YXXDR,A,-0.7,D,PTCH,A,0.1,D,ROLL*76
13:17:21.828: <- $WIMWV,290.1,R,2.0,N,A*2B
13:17:21.876: <- $HCHDG,91.1,0.0,E,9.2,W*62
13:17:22.036: <- $WIMDA,30.2564,I,1.0246,B,28.4,C,,,51.6,,17.4,C,11.9,T,21.1,M,2.0,N,1.0,M*68
13:17:22.084: <- $TIROT,-8.9,A*17
13:17:22.227: <- $GPRMC,171524.10,A,4018.3476,N,07958.6932,W,0.0,14.3,220819,9.2,W,D*0E
13:17:22.292: <- $WIMWV,288.7,R,1.9,N,A*2E
13:17:22.356: <- $HCHDG,90.8,0.0,E,9.2,W*6A
13:17:22.771: <- $YXXDR,A,-0.5,D,PTCH,A,0.2,D,ROLL*77
13:17:22.819: <- $WIMWV,283.7,R,1.9,N,A*25
13:17:22.883: <- $HCHDG,91.1,0.0,E,9.2,W*62
13:17:23.219: <- $GPZDA,171525.20,22,08,2019,00,00*63
13:17:23.283: <- $WIMWV,283.0,R,1.8,N,A*23
13:17:23.347: <- $HCHDG,91.1,0.0,E,9.2,W*62
13:17:23.507: <- $WIMDA,30.2564,I,1.0246,B,28.4,C,,,51.6,,17.4,C,3.2,T,12.4,M,1.7,N,0.9,M*59
13:17:23.539: <- $TIROT,-9.1,A*1E
13:17:23.763: <- $YXXDR,A,-0.5,D,PTCH,A,0.0,D,ROLL*75
13:17:23.827: <- $WIMWV,290.6,R,1.8,N,A*27
13:17:23.875: <- $HCHDG,91.1,0.0,E,9.2,W*62
13:17:24.227: <- $GPRMC,171526.10,A,4018.3476,N,07958.6933,W,0.0,82.3,220819,9.2,W,D*02
13:17:24.291: <- $WIMWV,300.9,R,2.1,N,A*2A
13:17:24.339: <- $HCHDG,90.8,0.0,E,9.2,W*6A
13:17:24.467: <- $YXXDR,C,,C,WCHR,C,,C,WCHT,C,28.9,C,HINX,P,0.9777,B,STNP*58
13:17:24.642: <- $GPGGA,171526.60,4018.3476,N,07958.6933,W,2,9,1.1,393.5,M,-33.0,M,,*62
13:17:24.770: <- $YXXDR,A,-0.4,D,PTCH,A,0.0,D,ROLL*74
13:17:24.818: <- $WIMWV,291.7,R,1.6,N,A*29
13:17:24.882: <- $HCHDG,90.8,0.0,E,9.2,W*6A
13:17:25.042: <- $WIMDA,30.2564,I,1.0246,B,28.3,C,,,51.5,,17.3,C,13.0,T,22.2,M,1.6,N,0.8,M*6C
13:17:25.074: <- $TIROT,3.4,A*3C
13:17:25.218: <- $GPZDA,171527.20,22,08,2019,00,00*61
13:17:25.299: <- $WIMWV,297.7,R,1.6,N,A*2F
13:17:25.443: <- $GPGSV,3,1,11,02,69,329,39,05,49,208,40,06,44,060,25,09,23,067,28*76
13:17:25.586: <- $GPGSV,3,2,,12,48,251,40,17,19,126,31,19,33,121,25,23,06,036,00*73
13:17:25.683: <- $GPGSV,3,3,,25,30,302,21,29,08,310,,44,30,229,38*4F
13:17:25.746: <- $HCHDG,90.8,0.0,E,9.2,W*6A
13:17:25.826: <- $YXXDR,A,-0.8,D,PTCH,A,-0.2,D,ROLL*57
13:17:25.890: <- $WIMWV,292.0,R,1.3,N,A*28
13:17:26.226: <- $GPRMC,171528.10,A,4018.3476,N,07958.6933,W,0.0,355.9,220819,9.2,W,D*3F
13:17:26.290: <- $HCHDG,90.8,0.0,E,9.2,W*6A
13:17:26.338: <- $WIMWV,297.9,R,1.5,N,A*22
13:17:26.514: <- $WIMDA,30.2535,I,1.0245,B,28.5,C,,,51.5,,17.5,C,20.3,T,29.5,M,1.5,N,0.8,M*67
13:17:26.546: <- $TIROT,-8.3,A*1D
13:17:26.737: <- $HCHDG,90.8,0.0,E,9.2,W*6A
13:17:26.818: <- $YXXDR,A,-0.3,D,PTCH,A,0.3,D,ROLL*70
13:17:26.881: <- $WIMWV,295.6,R,1.3,N,A*29
13:17:27.219: <- $GPZDA,171529.20,22,08,2019,00,00*6F
13:17:27.267: <- $HCHDG,90.8,0.0,E,9.2,W*6A
13:17:27.331: <- $WIMWV,285.9,R,1.2,N,A*26
13:17:27.459: <- $YXXDR,C,,C,WCHR,C,,C,WCHT,C,29.1,C,HINX,P,0.9777,B,STNP*51
13:17:27.634: <- $GPGGA,171529.60,4018.3475,N,07958.6934,W,2,9,1.1,393.5,M,-33.0,M,,*69
13:17:27.746: <- $HCHDG,90.8,0.0,E,9.2,W*6A
13:17:27.810: <- $YXXDR,A,-0.3,D,PTCH,A,0.3,D,ROLL*70
13:17:27.874: <- $WIMWV,286.5,R,1.3,N,A*28
13:17:28.034: <- $WIMDA,30.2564,I,1.0246,B,28.5,C,,,51.5,,17.5,C,8.8,T,18.0,M,1.2,N,0.6,M*5F
13:17:28.066: <- $TIROT,-3.6,A*13
13:17:28.226: <- $GPRMC,171530.10,A,4018.3475,N,07958.6934,W,0.0,2.6,220819,9.2,W,D*3C
13:17:28.290: <- $HCHDG,90.8,0.0,E,9.2,W*6A
13:17:28.338: <- $WIMWV,280.8,R,1.4,N,A*24
13:17:28.738: <- $HCHDG,91.1,0.0,E,9.2,W*62
13:17:28.818: <- $YXXDR,A,-0.6,D,PTCH,A,0.2,D,ROLL*74
13:17:28.866: <- $WIMWV,287.1,R,1.9,N,A*27
13:17:29.218: <- $GPZDA,171531.20,22,08,2019,00,00*66
13:17:29.266: <- $HCHDG,91.1,0.0,E,9.2,W*62
13:17:29.330: <- $WIMWV,287.5,R,2.5,N,A*2C
13:17:29.490: <- $WIMDA,30.2594,I,1.0247,B,28.4,C,,,51.5,,17.4,C,11.2,T,20.4,M,2.4,N,1.2,M*6C
13:17:29.522: <- $TIROT,-6.6,A*16
13:17:29.745: <- $HCHDG,91.1,0.0,E,9.2,W*62
13:17:29.809: <- $YXXDR,A,-0.3,D,PTCH,A,0.3,D,ROLL*70
13:17:29.873: <- $WIMWV,284.8,R,2.6,N,A*21
13:17:30.017: <- $GPGSV,3,1,11,02,69,329,38,05,49,208,41,06,44,060,25,09,23,067,28*76
13:17:30.161: <- $GPGSV,3,2,,12,48,251,41,17,19,126,29,19,33,121,25,23,06,036,*7B
13:17:30.274: <- $GPGSV,3,3,,25,30,302,24,29,08,310,,44,30,229,37*45
13:17:30.418: <- $GPRMC,171532.20,A,4018.3475,N,07958.6934,W,0.1,317.4,220819,9.2,W,D*39
13:17:30.481: <- $HCHDG,91.1,0.0,E,9.2,W*62
13:17:30.529: <- $WIMWV,265.5,R,2.6,N,A*23
13:17:30.657: <- $YXXDR,C,,C,WCHR,C,,C,WCHT,C,29.0,C,HINX,P,0.9775,B,STNP*52
13:17:30.817: <- $GPGGA,171532.70,4018.3475,N,07958.6934,W,2,9,1.1,393.5,M,-33.0,M,,*62
13:17:30.881: <- $YXXDR,A,-0.7,D,PTCH,A,0.2,D,ROLL*75
13:17:31.057: <- $WIMDA,30.2505,I,1.0244,B,28.4,C,,,51.5,,17.4,C,343.5,T,352.7,M,2.4,N,1.2,M*61
13:17:31.121: <- $HCHDG,91.1,0.0,E,9.2,W*62
13:17:31.169: <- $WIMWV,259.4,R,2.5,N,A*2E
13:17:31.201: <- $TIROT,-5.0,A*13
13:17:31.281: <- $GPZDA,171533.20,22,08,2019,00,00*64
13:17:31.537: <- $HCHDG,91.1,0.0,E,9.2,W*62
13:17:31.601: <- $WIMWV,262.7,R,2.7,N,A*27
13:17:31.808: <- $YXXDR,A,-0.5,D,PTCH,A,0.0,D,ROLL*75
13:17:32.032: <- $HCHDG,91.1,0.0,E,9.2,W*62
13:17:32.096: <- $WIMWV,272.2,R,2.8,N,A*2C
13:17:32.336: <- $GPRMC,171534.20,A,4018.3475,N,07958.6935,W,0.0,337.9,220819,9.2,W,D*30
13:17:32.496: <- $WIMDA,30.2564,I,1.0246,B,28.3,C,,,51.4,,17.3,C,358.7,T,7.9,M,2.7,N,1.4,M*65
13:17:32.561: <- $HCHDG,91.1,0.0,E,9.2,W*62
13:17:32.608: <- $WIMWV,279.7,R,2.7,N,A*2D
13:17:32.672: <- $TIROT,-12.3,A*26
13:17:32.816: <- $YXXDR,A,-0.7,D,PTCH,A,-0.2,D,ROLL*58
13:17:33.040: <- $HCHDG,91.1,0.0,E,9.2,W*62
13:17:33.088: <- $WIMWV,284.9,R,2.4,N,A*22
13:17:33.216: <- $GPZDA,171535.20,22,08,2019,00,00*62
13:17:33.552: <- $YXXDR,C,,C,WCHR,C,,C,WCHT,C,29.0,C,HINX,P,0.9776,B,STNP*51
13:17:33.616: <- $HCHDG,90.8,0.0,E,9.2,W*6A
13:17:33.664: <- $WIMWV,285.3,R,2.6,N,A*2B
13:17:33.824: <- $GPGGA,171535.70,4018.3475,N,07958.6935,W,2,9,1.1,393.4,M,-33.0,M,,*65
13:17:33.904: <- $YXXDR,A,-0.4,D,PTCH,A,0.0,D,ROLL*74
13:17:34.064: <- $WIMDA,30.2535,I,1.0245,B,28.4,C,,,51.4,,17.3,C,11.1,T,20.3,M,2.5,N,1.3,M*67
13:17:34.128: <- $HCHDG,90.8,0.0,E,9.2,W*6A
13:17:34.176: <- $WIMWV,290.0,R,2.4,N,A*2E
13:17:34.224: <- $TIROT,-10.0,A*27
13:17:34.368: <- $GPRMC,171536.20,A,4018.3475,N,07958.6935,W,0.0,306.5,220819,9.2,W,D*3C
13:17:34.512: <- $GPGSV,3,1,11,02,69,329,38,05,49,208,42,06,44,060,27,09,23,067,25*7A
13:17:34.655: <- $GPGSV,3,2,,12,48,251,42,17,19,126,29,19,33,121,22,23,06,036,*7F
13:17:34.767: <- $GPGSV,3,3,,25,30,302,22,29,08,310,00,44,30,229,38*4C
13:17:34.815: <- $WIMWV,293.8,R,2.3,N,A*22
13:17:34.879: <- $HCHDG,91.3,0.0,E,9.2,W*60
13:17:34.959: <- $YXXDR,A,-0.6,D,PTCH,A,-0.1,D,ROLL*5A
13:17:35.215: <- $GPZDA,171537.20,22,08,2019,00,00*60
13:17:35.264: <- $WIMWV,293.4,R,2.3,N,A*2E
13:17:35.327: <- $HCHDG,90.9,0.0,E,9.2,W*6B
13:17:35.487: <- $WIMDA,30.2535,I,1.0245,B,28.5,C,,,51.3,,17.4,C,17.1,T,26.3,M,2.3,N,1.2,M*61
13:17:35.679: <- $TIROT,0.8,A*33
13:17:35.743: <- $WIMWV,293.2,R,2.3,N,A*28
13:17:35.791: <- $HCHDG,90.9,0.0,E,9.2,W*6B
13:17:35.871: <- $YXXDR,A,-0.5,D,PTCH,A,0.0,D,ROLL*75
13:17:36.239: <- $WIMWV,282.9,R,2.9,N,A*29
13:17:36.383: <- $GPRMC,171538.20,A,4018.3475,N,07958.6935,W,0.0,81.8,220819,9.2,W,D*03
13:17:36.447: <- $HCHDG,90.9,0.0,E,9.2,W*6B
13:17:36.574: <- $YXXDR,C,,C,WCHR,C,,C,WCHT,C,29.0,C,HINX,P,0.9777,B,STNP*50
13:17:36.734: <- $GPGGA,171538.70,4018.3475,N,07958.6935,W,2,9,1.1,393.1,M,-33.0,M,,*6D
13:17:36.782: <- $WIMWV,283.3,R,3.1,N,A*2B
13:17:36.862: <- $YXXDR,A,-0.4,D,PTCH,A,0.2,D,ROLL*76
13:17:36.926: <- $HCHDG,91.0,0.0,E,9.2,W*63
13:17:37.086: <- $WIMDA,30.2535,I,1.0245,B,28.4,C,,,51.3,,17.3,C,358.0,T,7.2,M,3.1,N,1.6,M*6B
13:17:37.167: <- $TIROT,-8.8,A*16
13:17:37.246: <- $GPZDA,171539.20,22,08,2019,00,00*6E
13:17:37.311: <- $WIMWV,266.6,R,2.7,N,A*22
13:17:37.391: <- $HCHDG,90.7,0.0,E,9.2,W*65
13:17:37.742: <- $WIMWV,262.5,R,2.4,N,A*26
13:17:37.854: <- $YXXDR,A,-0.4,D,PTCH,A,0.2,D,ROLL*76
13:17:37.918: <- $HCHDG,90.7,0.0,E,9.2,W*65
13:17:38.238: <- $WIMWV,258.4,R,2.6,N,A*2C
13:17:38.383: <- $GPRMC,171540.20,A,4018.3475,N,07958.6935,W,0.0,72.2,220819,9.2,W,D*0A
13:17:38.446: <- $HCHDG,90.7,0.0,E,9.2,W*65
13:17:38.606: <- $WIMDA,30.2505,I,1.0244,B,28.5,C,,,51.2,,17.4,C,340.0,T,349.2,M,2.9,N,1.5,M*64
13:17:38.670: <- $TIROT,-3.5,A*10
13:17:38.734: <- $WIMWV,256.8,R,3.5,N,A*2C
13:17:38.862: <- $YXXDR,A,-0.4,D,PTCH,A,0.2,D,ROLL*76
13:17:39.005: <- $GPGSV,3,1,11,02,69,329,38,05,49,208,41,06,44,060,29,09,23,067,25*77
13:17:39.150: <- $GPGSV,3,2,,12,48,250,42,17,19,126,29,19,33,121,17,23,06,036,*78
13:17:39.261: <- $GPGSV,3,3,,25,30,301,21,29,08,310,,44,30,229,38*4C
13:17:39.326: <- $GPZDA,171541.30,22,08,2019,00,00*60
13:17:39.390: <- $HCHDG,90.4,0.0,E,9.2,W*66
13:17:39.454: <- $WIMWV,254.3,R,3.3,N,A*23
13:17:39.581: <- $YXXDR,C,,C,WCHR,C,,C,WCHT,C,28.9,C,HINX,P,0.9777,B,STNP*58
13:17:39.741: <- $GPGGA,171541.70,4018.3475,N,07958.6936,W,2,8,1.1,393.0,M,-33.0,M,,*60
13:17:39.837: <- $HCHDG,90.7,0.0,E,9.2,W*65
13:17:39.917: <- $YXXDR,A,-0.5,D,PTCH,A,0.2,D,ROLL*77
13:17:39.981: <- $WIMWV,248.1,R,2.2,N,A*2C
13:17:40.141: <- $WIMDA,30.2505,I,1.0244,B,28.3,C,,,51.2,,17.2,C,328.4,T,337.6,M,2.0,N,1.0,M*6F
13:17:40.174: <- $TIROT,-1.6,A*11
13:17:40.334: <- $GPRMC,171542.20,A,4018.3475,N,07958.6936,W,0.0,85.9,220819,9.2,W,D*08
13:17:40.381: <- $HCHDG,90.7,0.0,E,9.2,W*65
13:17:40.445: <- $WIMWV,231.0,R,1.5,N,A*27
13:17:40.845: <- $HCHDG,91.0,0.0,E,9.2,W*63
13:17:40.925: <- $YXXDR,A,-0.6,D,PTCH,A,0.0,D,ROLL*76
13:17:40.973: <- $WIMWV,239.6,R,1.4,N,A*28
13:17:41.261: <- $GPZDA,171543.30,22,08,2019,00,00*62
13:17:41.341: <- $HCHDG,91.0,0.0,E,9.2,W*63
13:17:41.405: <- $WIMWV,250.2,R,1.7,N,A*20
13:17:41.564: <- $WIMDA,30.2505,I,1.0244,B,28.3,C,,,51.2,,17.2,C,332.5,T,341.7,M,1.6,N,0.8,M*69
13:17:41.676: <- $TIROT,-5.5,A*16
13:17:41.852: <- $HCHDG,90.7,0.0,E,9.2,W*65
13:17:41.916: <- $YXXDR,A,-0.4,D,PTCH,A,0.3,D,ROLL*77
13:17:41.980: <- $WIMWV,258.6,R,1.8,N,A*23
13:17:42.333: <- $GPRMC,171544.10,A,4018.3475,N,07958.6936,W,0.1,326.2,220819,9.2,W,D*3D
13:17:42.396: <- $HCHDG,90.7,0.0,E,9.2,W*65
13:17:42.461: <- $WIMWV,272.2,R,2.0,N,A*24
13:17:42.572: <- $YXXDR,C,,C,WCHR,C,,C,WCHT,C,29.0,C,HINX,P,0.9776,B,STNP*51
13:17:42.732: <- $GPGGA,171544.70,4018.3475,N,07958.6936,W,2,9,1.1,392.8,M,-33.0,M,,*6D
13:17:42.844: <- $HCHDG,91.0,0.0,E,9.2,W*63
13:17:42.924: <- $YXXDR,A,-0.7,D,PTCH,A,0.2,D,ROLL*75
13:17:42.972: <- $WIMWV,266.5,R,2.0,N,A*26
13:17:43.132: <- $WIMDA,30.2505,I,1.0244,B,28.4,C,,,51.2,,17.3,C,349.6,T,358.8,M,1.9,N,1.0,M*61
13:17:43.180: <- $TIROT,-1.0,A*17
13:17:43.260: <- $GPZDA,171545.30,22,08,2019,00,00*64
13:17:43.340: <- $HCHDG,91.0,0.0,E,9.2,W*63
13:17:43.500: <- $GPGSV,3,1,11,02,69,329,39,05,49,208,43,06,44,060,30,09,23,067,26*7F
13:17:43.628: <- $GPGSV,3,2,,12,48,250,43,17,19,126,31,19,33,121,19,23,06,036,*7E
13:17:43.740: <- $GPGSV,3,3,,25,30,301,22,29,08,310,,44,30,229,38*4F
13:17:43.788: <- $WIMWV,282.4,R,1.9,N,A*27
13:17:43.851: <- $HCHDG,91.0,0.0,E,9.2,W*63
13:17:43.931: <- $YXXDR,A,-0.6,D,PTCH,A,0.0,D,ROLL*76
13:17:44.235: <- $WIMWV,281.4,R,1.9,N,A*24
13:17:44.395: <- $GPRMC,171546.20,A,4018.3475,N,07958.6937,W,0.1,331.3,220819,9.2,W,D*3A
13:17:44.444: <- $HCHDG,91.0,0.0,E,9.2,W*63
13:17:44.604: <- $WIMDA,30.2505,I,1.0244,B,28.4,C,,,51.2,,17.3,C,355.3,T,4.5,M,1.8,N,0.9,M*67
13:17:44.668: <- $TIROT,-8.8,A*16
13:17:44.732: <- $WIMWV,272.2,R,1.7,N,A*20
13:17:44.860: <- $YXXDR,A,-1.0,D,PTCH,A,0.3,D,ROLL*72
13:17:44.924: <- $HCHDG,91.0,0.0,E,9.2,W*63
13:17:45.244: <- $WIMWV,263.7,R,1.3,N,A*21
13:17:45.324: <- $GPZDA,171547.30,22,08,2019,00,00*66
13:17:45.388: <- $HCHDG,91.0,0.0,E,9.2,W*63
13:17:45.564: <- $YXXDR,C,,C,WCHR,C,,C,WCHT,C,29.0,C,HINX,P,0.9776,B,STNP*51
13:17:45.724: <- $GPGGA,171547.70,4018.3475,N,07958.6937,W,2,9,1.1,392.6,M,-33.0,M,,*61
13:17:45.788: <- $WIMWV,254.8,R,1.2,N,A*2B
13:17:45.868: <- $YXXDR,A,-0.5,D,PTCH,A,-0.4,D,ROLL*5C
13:17:45.932: <- $HCHDG,91.0,0.0,E,9.2,W*63
13:17:46.092: <- $WIMDA,30.2505,I,1.0244,B,28.4,C,,,51.2,,17.3,C,336.2,T,345.4,M,1.0,N,0.5,M*60
13:17:46.172: <- $TIROT,-9.4,A*1B
13:17:46.252: <- $WIMWV,251.6,R,1.0,N,A*22
13:17:46.396: <- $GPRMC,171548.30,A,4018.3475,N,07958.6937,W,0.1,339.3,220819,9.2,W,D*3D
13:17:46.460: <- $HCHDG,90.8,0.0,E,9.2,W*6A
13:17:46.731: <- $WIMWV,255.7,R,1.5,N,A*22
13:17:46.859: <- $YXXDR,A,-0.8,D,PTCH,A,-0.1,D,ROLL*54
13:17:46.923: <- $HCHDG,91.1,0.0,E,9.2,W*62
13:17:47.243: <- $WIMWV,258.4,R,1.7,N,A*2E
13:17:47.323: <- $GPZDA,171549.20,22,08,2019,00,00*69
13:17:47.388: <- $HCHDG,91.1,0.0,E,9.2,W*62
13:17:47.563: <- $WIMDA,30.2505,I,1.0244,B,28.3,C,,,51.2,,17.2,C,337.9,T,347.1,M,1.5,N,0.8,M*63
13:17:47.675: <- $TIROT,-9.2,A*1D
13:17:47.739: <- $WIMWV,254.5,R,1.5,N,A*21
13:17:47.867: <- $YXXDR,A,-0.6,D,PTCH,A,0.6,D,ROLL*70
13:17:48.011: <- $GPGSV,3,1,11,02,69,329,38,05,49,208,43,06,44,060,29,09,23,067,25*75
13:17:48.156: <- $GPGSV,3,2,,12,48,250,43,17,19,126,33,19,32,121,16,23,06,036,*72
13:17:48.267: <- $GPGSV,3,3,,25,30,301,20,29,08,310,00,44,30,229,38*4D
13:17:48.315: <- $WIMWV,259.5,R,1.3,N,A*2A
13:17:48.379: <- $HCHDG,91.1,0.0,E,9.2,W*62
13:17:48.539: <- $GPRMC,171550.30,A,4018.3475,N,07958.6938,W,0.1,325.8,220819,9.2,W,D*3D
13:17:48.651: <- $YXXDR,C,,C,WCHR,C,,C,WCHT,C,28.9,C,HINX,P,0.9777,B,STNP*58
13:17:48.811: <- $GPGGA,171550.70,4018.3475,N,07958.6938,W,2,9,1.1,392.5,M,-33.0,M,,*6B
13:17:48.859: <- $WIMWV,286.6,R,1.5,N,A*2D
13:17:48.922: <- $HCHDG,91.1,0.0,E,9.2,W*62
13:17:49.002: <- $YXXDR,A,-0.4,D,PTCH,A,0.3,D,ROLL*77
13:17:49.162: <- $WIMDA,30.2505,I,1.0244,B,28.3,C,,,51.2,,17.2,C,9.0,T,18.2,M,1.6,N,0.8,M*5D
13:17:49.195: <- $TIROT,-5.9,A*1A
13:17:49.275: <- $GPZDA,171551.30,22,08,2019,00,00*61
13:17:49.339: <- $WIMWV,278.6,R,1.8,N,A*21
13:17:49.387: <- $HCHDG,90.8,0.0,E,9.2,W*6A
13:17:49.786: <- $WIMWV,247.4,R,1.8,N,A*2F
13:17:49.850: <- $HCHDG,91.1,0.0,E,9.2,W*62
13:17:49.930: <- $YXXDR,A,-0.7,D,PTCH,A,-0.2,D,ROLL*58
13:17:50.299: <- $WIMWV,255.1,R,1.8,N,A*29
13:17:50.347: <- $HCHDG,91.1,0.0,E,9.2,W*62
13:17:50.507: <- $GPRMC,171552.30,A,4018.3476,N,07958.6939,W,0.0,314.7,220819,9.2,W,D*31
13:17:50.666: <- $WIMDA,30.2476,I,1.0243,B,28.4,C,,,51.1,,17.3,C,339.3,T,348.5,M,1.5,N,0.8,M*6B
13:17:50.714: <- $TIROT,-10.6,A*21
13:17:50.794: <- $WIMWV,254.1,R,1.5,N,A*25
13:17:50.842: <- $HCHDG,91.1,0.0,E,9.2,W*62
13:17:50.922: <- $YXXDR,A,-0.7,D,PTCH,A,0.0,D,ROLL*77
13:17:51.274: <- $GPZDA,171553.20,22,08,2019,00,00*62
13:17:51.322: <- $WIMWV,256.2,R,1.3,N,A*22
13:17:51.386: <- $HCHDG,91.1,0.0,E,9.2,W*62
13:17:51.561: <- $YXXDR,C,,C,WCHR,C,,C,WCHT,C,28.9,C,HINX,P,0.9776,B,STNP*59
13:17:51.737: <- $GPGGA,171553.70,4018.3476,N,07958.6939,W,2,9,1.1,392.4,M,-33.0,M,,*6B
13:17:51.785: <- $WIMWV,264.6,R,1.4,N,A*20
13:17:51.849: <- $HCHDG,91.1,0.0,E,9.2,W*62
13:17:51.929: <- $YXXDR,A,-0.6,D,PTCH,A,0.0,D,ROLL*76
13:17:52.105: <- $WIMDA,30.2446,I,1.0242,B,28.3,C,,,51.1,,17.2,C,348.8,T,358.0,M,1.4,N,0.7,M*68
13:17:52.169: <- $TIROT,-9.3,A*1C
13:17:52.282: <- $WIMWV,280.1,R,1.7,N,A*2E
13:17:52.346: <- $HCHDG,91.0,0.0,E,9.2,W*63
13:17:52.505: <- $GPRMC,171554.40,A,4018.3476,N,07958.6939,W,0.1,261.1,220819,9.2,W,D*34
13:17:52.649: <- $GPGSV,3,1,11,02,69,329,39,05,49,208,44,06,44,060,31,09,23,067,19*75
13:17:52.777: <- $GPGSV,3,2,,12,48,250,44,17,19,126,33,19,32,121,21,23,06,036,*71
13:17:52.889: <- $GPGSV,3,3,,25,30,301,20,29,08,310,,44,30,229,39*4C
13:17:52.953: <- $HCHDG,91.0,0.0,E,9.2,W*63
13:17:53.033: <- $YXXDR,A,-0.7,D,PTCH,A,-0.2,D,ROLL*58
13:17:53.081: <- $WIMWV,281.8,R,2.1,N,A*23
13:17:53.273: <- $GPZDA,171555.30,22,08,2019,00,00*65
13:17:53.401: <- $HCHDG,91.0,0.0,E,9.2,W*63
13:17:53.497: <- $WIMWV,279.3,R,1.8,N,A*25
13:17:53.657: <- $WIMDA,30.2505,I,1.0244,B,28.4,C,,,51.1,,17.3,C,3.5,T,12.7,M,1.7,N,0.9,M*58
13:17:53.689: <- $TIROT,-9.5,A*1A
13:17:53.897: <- $HCHDG,91.0,0.0,E,9.2,W*63
13:17:53.976: <- $YXXDR,A,-0.7,D,PTCH,A,0.2,D,ROLL*75
13:17:54.025: <- $WIMWV,284.6,R,1.7,N,A*2D
13:17:54.441: <- $GPRMC,171556.40,A,4018.3477,N,07958.6940,W,0.1,328.6,220819,9.2,W,D*32
13:17:54.504: <- $HCHDG,91.0,0.0,E,9.2,W*63
13:17:54.552: <- $WIMWV,288.9,R,1.9,N,A*20
13:17:54.680: <- $YXXDR,C,,C,WCHR,C,,C,WCHT,C,29.0,C,HINX,P,0.9775,B,STNP*52
13:17:54.824: <- $GPGGA,171556.70,4018.3477,N,07958.6940,W,2,7,2.3,392.4,M,-33.0,M,,*6E
13:17:54.952: <- $HCHDG,91.0,0.0,E,9.2,W*63
13:17:55.032: <- $YXXDR,A,-0.7,D,PTCH,A,0.2,D,ROLL*75
13:17:55.081: <- $WIMWV,286.2,R,1.9,N,A*25
13:17:55.241: <- $WIMDA,30.2476,I,1.0243,B,28.4,C,,,51.1,,17.3,C,7.9,T,17.1,M,1.8,N,0.9,M*5E
13:17:55.272: <- $TIROT,-9.7,A*18
13:17:55.352: <- $GPZDA,171557.30,22,08,2019,00,00*67
13:17:55.432: <- $HCHDG,91.0,0.0,E,9.2,W*63
13:17:55.496: <- $WIMWV,290.4,R,1.8,N,A*25
13:17:55.944: <- $HCHDG,91.0,0.0,E,9.2,W*63
13:17:56.024: <- $YXXDR,A,-0.5,D,PTCH,A,0.1,D,ROLL*74
13:17:56.087: <- $WIMWV,288.1,R,1.8,N,A*29
13:17:56.439: <- $GPRMC,171558.40,A,4018.3477,N,07958.6941,W,0.1,339.9,220819,9.2,W,D*32
13:17:56.503: <- $HCHDG,91.0,0.0,E,9.2,W*63
13:17:56.551: <- $WIMWV,290.9,R,1.4,N,A*24
